[ {
  "id" : "2351791",
  "name" : "Плоштад Македонија",
  "name:en" : "Macedonia Square",
  "tourism" : "attraction",
  "latitude" : "41.9957636",
  "longitude" : "21.430778"
}, {
  "id" : "5360060",
  "name" : "Капан АН",
  "addr:city" : "Cкoпje",
  "addr:city:en" : "Skopje",
  "opening_hours" : "24/7",
  "tourism" : "attraction",
  "latitude" : "42.0003007",
  "longitude" : "21.436573"
}, {
  "id" : "5360062",
  "name" : "Куршумли-ан",
  "addr:city" : "Cкoпje",
  "addr:city:en" : "Skopje",
  "tourism" : "museum",
  "amenity" : "arts_centre",
  "latitude" : "42.0032939",
  "longitude" : "21.4367598"
}, {
  "id" : "6620184",
  "name" : "Маркови Кули",
  "name:en" : "Marko's Towers",
  "historic" : "castle",
  "tourism" : "attraction",
  "latitude" : "41.3610558",
  "longitude" : "21.5394503"
}, {
  "id" : "6891030",
  "name" : "Јанче",
  "name:en" : "Janche",
  "tourism" : "attraction",
  "latitude" : "41.5913279",
  "longitude" : "20.6197312"
}, {
  "id" : "7681733",
  "name" : "Езеро Младост / Езеро Отовица / Велешко Езеро",
  "name:en" : "Lake of Mladost / Lake of Otovica / lake of Veles",
  "tourism" : "attraction",
  "latitude" : "41.7759284",
  "longitude" : "21.7554836"
}, {
  "id" : "8198779",
  "name" : "Дељадровечки манастир",
  "name:en" : "Monastery of Deljadrovci",
  "religion" : "christian",
  "latitude" : "42.0224257",
  "longitude" : "21.6762"
}, {
  "id" : "12327159",
  "name" : "Калиманци",
  "name:en" : "Kalimanci",
  "tourism" : "attraction",
  "latitude" : "41.9894729",
  "longitude" : "22.5927669"
}, {
  "id" : "15078753",
  "name" : "Куќата на Мантови",
  "name:en" : "House of Mantov",
  "historic" : "archaeological_site",
  "latitude" : "41.3557382",
  "longitude" : "21.5404226"
}, {
  "id" : "28214395",
  "name" : "Зоолошка градина скопје",
  "name:en" : "Skopje Zoo",
  "addr:city" : "Cкoпje",
  "addr:city:en" : "Skopje",
  "phone" : "+389 2 3220578",
  "opening_hours" : "09:00-18:00",
  "tourism" : "attraction",
  "latitude" : "42.0059957",
  "longitude" : "21.4168368"
}, {
  "id" : "32463336",
  "name" : "Скупи",
  "name:en" : "Scupi",
  "historic" : "archaeological_site",
  "tourism" : "attraction",
  "latitude" : "42.0150515",
  "longitude" : "21.3942891"
}, {
  "id" : "32812963",
  "name" : "Музеј на Македонија",
  "name:en" : "Museum of Macedonia",
  "addr:city" : "Cкoпje",
  "addr:city:en" : "Skopje",
  "tourism" : "museum",
  "latitude" : "42.003194",
  "longitude" : "21.4363088"
}, {
  "id" : "32855069",
  "name" : "Црква Св. Димитриј",
  "name:en" : "Church of St. Demetrius",
  "addr:city" : "Cкoпje",
  "addr:city:en" : "Skopje",
  "building" : "church",
  "amenity" : "place_of_worship",
  "religion" : "christian",
  "latitude" : "41.9983981",
  "longitude" : "21.4342365"
}, {
  "id" : "32887087",
  "name" : "Музеј на современата уметност",
  "name:en" : "Contemporary Art Museum of Macedonia",
  "addr:city" : "Cкoпje",
  "addr:city:en" : "Skopje",
  "phone" : "+389 2 3117734",
  "opening_hours" : "Tu-Sa 10:00-15:00; Su 09:00-13:00",
  "tourism" : "museum",
  "amenity" : "arts_centre",
  "latitude" : "42.0043142",
  "longitude" : "21.4325172"
}, {
  "id" : "33096272",
  "name" : "Sv.Atanasij",
  "amenity" : "place_of_worship",
  "religion" : "christian",
  "latitude" : "41.9776359",
  "longitude" : "21.0098228"
}, {
  "id" : "33100249",
  "name" : "Тетовско Кале",
  "name:en" : "Tetovo Fortress",
  "historic" : "castle",
  "latitude" : "42.0191243",
  "longitude" : "20.9616713"
}, {
  "id" : "34093752",
  "name" : "Самуилова тврдина",
  "name:en" : "Samuil's Fortress",
  "historic" : "castle",
  "tourism" : "attraction",
  "latitude" : "41.1159332",
  "longitude" : "20.7918338"
}, {
  "id" : "34093853",
  "name" : "Антички театар",
  "name:en" : "Ancient Theatre",
  "historic" : "archaeological_site",
  "tourism" : "attraction",
  "latitude" : "41.114509",
  "longitude" : "20.7935224"
}, {
  "id" : "34094279",
  "name" : "Плаошник",
  "name:en" : "Plaoshnik",
  "historic" : "archaeological_site",
  "tourism" : "attraction",
  "latitude" : "41.1137069",
  "longitude" : "20.7904973"
}, {
  "id" : "34094478",
  "name" : "Св. Климент и Пантелејмон",
  "name:en" : "St. Clement and Panteleimon",
  "building" : "church",
  "amenity" : "place_of_worship",
  "tourism" : "attraction",
  "denomination" : "macedonian_orthodox",
  "religion" : "christian",
  "latitude" : "41.1125013",
  "longitude" : "20.7908012"
}, {
  "id" : "34321470",
  "name" : "Младински Културен Центар",
  "name:en" : "Youth Cultural Center",
  "addr:city" : "Cкoпje",
  "addr:city:en" : "Skopje",
  "amenity" : "arts_centre",
  "latitude" : "41.9965179",
  "longitude" : "21.442879"
}, {
  "id" : "35996507",
  "name" : "Турски Театар",
  "addr:city" : "Cкoпje",
  "addr:city:en" : "Skopje",
  "amenity" : "arts_centre",
  "latitude" : "42.0045703",
  "longitude" : "21.4379614"
}, {
  "id" : "37372709",
  "name" : "Беровско Езеро",
  "name:en" : "Berovo Lake",
  "tourism" : "attraction",
  "latitude" : "41.6758078",
  "longitude" : "22.8989207"
}, {
  "id" : "37748507",
  "name" : "Саат Кула",
  "name:en" : "Clock Tower",
  "addr:city" : "Битола",
  "historic" : "tower",
  "tourism" : "attraction",
  "latitude" : "41.0309344",
  "longitude" : "21.333901"
}, {
  "id" : "37866487",
  "name" : "Св. Ѓорѓи",
  "name:en" : "St. George",
  "amenity" : "place_of_worship",
  "religion" : "christian",
  "latitude" : "41.9172507",
  "longitude" : "22.4079464"
}, {
  "id" : "37956139",
  "name" : "Хераклеа Линкестис",
  "name:en" : "Heraclea Lyncestis",
  "historic" : "archaeological_site",
  "tourism" : "attraction",
  "latitude" : "41.011223",
  "longitude" : "21.3434247"
}, {
  "id" : "38575706",
  "name" : "Јени Џамија",
  "name:en" : "Yeni Mosque",
  "amenity" : "place_of_worship",
  "tourism" : "attraction",
  "latitude" : "41.0305683",
  "longitude" : "21.3349842"
}, {
  "id" : "38580676",
  "name" : "Магаза",
  "name:en" : "Magaza gallery",
  "tourism" : "museum",
  "latitude" : "41.0299956",
  "longitude" : "21.3350427"
}, {
  "id" : "38581757",
  "name" : "Исак Џамија",
  "name:en" : "Isak Mosque",
  "amenity" : "place_of_worship",
  "latitude" : "41.0320321",
  "longitude" : "21.334224"
}, {
  "id" : "38582552",
  "name" : "Св. Димитриј Солунски",
  "name:en" : "St. Demetrius of Salonica",
  "amenity" : "place_of_worship",
  "denomination" : "macedonian_orthodox",
  "religion" : "christian",
  "latitude" : "41.0299598",
  "longitude" : "21.3340939"
}, {
  "id" : "38765140",
  "name" : "Католичка црква Пресвето срце Исусово",
  "name:en" : "Sacred Heart of Jesus",
  "addr:city" : "Cкoпje",
  "addr:city:en" : "Skopje",
  "building" : "church",
  "amenity" : "place_of_worship",
  "religion" : "christian",
  "latitude" : "41.9950932",
  "longitude" : "21.4176045"
}, {
  "id" : "40413629",
  "name" : "Novi gradski grobishta Kriva Palanka",
  "religion" : "christian",
  "latitude" : "42.18733",
  "longitude" : "22.2935684"
}, {
  "id" : "40413632",
  "name" : "Stari gradski grobishta Kriva Palanka",
  "religion" : "christian",
  "latitude" : "42.2000009",
  "longitude" : "22.335781"
}, {
  "id" : "44026574",
  "name" : "Султан Муратова џамија",
  "addr:city" : "Cкoпje",
  "addr:city:en" : "Skopje",
  "amenity" : "place_of_worship",
  "latitude" : "42.0016521",
  "longitude" : "21.4411567"
}, {
  "id" : "44038503",
  "name" : "Саат-кула",
  "addr:city" : "Cкoпje",
  "addr:city:en" : "Skopje",
  "tourism" : "attraction",
  "latitude" : "42.0020362",
  "longitude" : "21.4413913"
}, {
  "id" : "44038732",
  "name" : "Иса-бегова џамија",
  "addr:city" : "Cкoпje",
  "addr:city:en" : "Skopje",
  "amenity" : "place_of_worship",
  "tourism" : "attraction",
  "latitude" : "42.003259",
  "longitude" : "21.4415597"
}, {
  "id" : "44038943",
  "name" : "Алаџа-џамија",
  "name:en" : "Allaxha Mosque",
  "addr:city" : "Cкoпje",
  "addr:city:en" : "Skopje",
  "amenity" : "place_of_worship",
  "latitude" : "42.0046496",
  "longitude" : "21.4394979"
}, {
  "id" : "44039295",
  "name" : "Јаја-пашина џамија",
  "name:en" : "Yaya Pacha Mosque",
  "addr:city" : "Cкoпje",
  "addr:city:en" : "Skopje",
  "amenity" : "place_of_worship",
  "tourism" : "attraction",
  "latitude" : "42.0076563",
  "longitude" : "21.4423466"
}, {
  "id" : "123273638",
  "name" : "Манастир Св. Пантелејмон",
  "name:en" : "Monastery Sv. Pantelejmon",
  "addr:city" : "Cкoпje",
  "addr:city:en" : "Skopje",
  "amenity" : "place_of_worship",
  "tourism" : "attraction",
  "religion" : "christian",
  "latitude" : "41.9768504",
  "longitude" : "21.3743601"
}, {
  "id" : "123273640",
  "name" : "Македонско село",
  "tourism" : "attraction",
  "latitude" : "41.9764141",
  "longitude" : "21.3737551"
}, {
  "id" : "131232665",
  "name" : "Црква Св. Ѓорги",
  "amenity" : "place_of_worship",
  "religion" : "christian",
  "latitude" : "41.2195542",
  "longitude" : "22.7060739"
}, {
  "id" : "134283604",
  "name" : "Девојачки Камен",
  "tourism" : "attraction",
  "latitude" : "42.0679225",
  "longitude" : "21.2906001"
}, {
  "id" : "150596710",
  "name" : "Спомен Костурница",
  "name:en" : "Kosturnica Memorial",
  "tourism" : "museum",
  "latitude" : "41.7232436",
  "longitude" : "21.7892333"
}, {
  "id" : "155870490",
  "name" : "Св. Богородица",
  "name:en" : "Saint Mary's Church",
  "building" : "church",
  "amenity" : "place_of_worship",
  "religion" : "christian",
  "latitude" : "41.0656111",
  "longitude" : "21.1043391"
}, {
  "id" : "158683818",
  "name" : "Свети Никола",
  "amenity" : "place_of_worship",
  "religion" : "christian",
  "latitude" : "42.1374329",
  "longitude" : "21.7202523"
}, {
  "id" : "159068224",
  "name" : "Споменик Костурница",
  "historic" : "monument",
  "latitude" : "42.1455574",
  "longitude" : "21.722504"
}, {
  "id" : "159356146",
  "name" : "Света Троица",
  "amenity" : "place_of_worship",
  "religion" : "christian",
  "latitude" : "42.1340954",
  "longitude" : "21.7209336"
}, {
  "id" : "161468292",
  "name" : "Хиподром Волково",
  "name:en" : "Hipodrom Volkovo",
  "tourism" : "attraction",
  "latitude" : "42.0506819",
  "longitude" : "21.361598"
}, {
  "id" : "161469536",
  "name" : "Sv. Petka-Kuckovo",
  "amenity" : "place_of_worship",
  "religion" : "christian",
  "latitude" : "42.0555663",
  "longitude" : "21.3026299"
}, {
  "id" : "161469646",
  "name" : "Sv. Nedela-Kuckovo",
  "amenity" : "place_of_worship",
  "religion" : "christian",
  "latitude" : "42.0554906",
  "longitude" : "21.302308"
}, {
  "id" : "161469959",
  "name" : "Sv. Krstovden-Kuckovo",
  "amenity" : "place_of_worship",
  "religion" : "christian",
  "latitude" : "42.0517106",
  "longitude" : "21.3110252"
}, {
  "id" : "166531109",
  "name" : "Татар Синан Бег џамија",
  "name:en" : "Tatar Sinan Pasha Mosque",
  "amenity" : "place_of_worship",
  "latitude" : "42.1372699",
  "longitude" : "21.7150461"
}, {
  "id" : "167661160",
  "name" : "Evangelic-Methodist Church",
  "religion" : "christian",
  "latitude" : "41.3811052",
  "longitude" : "22.8120917"
}, {
  "id" : "171384374",
  "name" : "Св. Кирил и Методиј",
  "name:en" : "Saints Cyril and Methodius",
  "building" : "church",
  "amenity" : "place_of_worship",
  "religion" : "christian",
  "latitude" : "41.0917518",
  "longitude" : "21.009203"
}, {
  "id" : "172171547",
  "name" : "Национална галерија „Даут-пашин амам“",
  "name:en" : "Daut Pasha Hamam National Gallery",
  "addr:city" : "Cкoпje",
  "addr:city:en" : "Skopje",
  "phone" : "+389 2 3133102",
  "opening_hours" : "Tu-Su 10:00-18:00",
  "tourism" : "museum",
  "amenity" : "arts_centre",
  "latitude" : "41.998911",
  "longitude" : "21.4355586"
}, {
  "id" : "172178304",
  "name" : "Мустафа-пашина џамија",
  "name:en" : "Mustafa Pasha's Mosque",
  "addr:city" : "Cкoпje",
  "addr:city:en" : "Skopje",
  "amenity" : "place_of_worship",
  "tourism" : "attraction",
  "latitude" : "42.0020559",
  "longitude" : "21.4352755"
}, {
  "id" : "172180530",
  "name" : "Музеј на македонската борба",
  "name:en" : "Museum of the Macedonian struggle",
  "addr:city" : "Cкoпje",
  "addr:city:en" : "Skopje",
  "phone" : "+389 2 3256 667",
  "opening_hours" : "Tu-Su 10:00-18:00",
  "tourism" : "museum",
  "latitude" : "41.9982848",
  "longitude" : "21.4329425"
}, {
  "id" : "172186249",
  "name" : "Меморијален центар на холокаустот на Евреите од Македонија",
  "name:en" : "Holocaust Memorial Center for the Jews of Macedonia",
  "addr:city" : "Cкoпje",
  "addr:city:en" : "Skopje",
  "phone" : "+389 2 3122697",
  "historic" : "memorial",
  "tourism" : "museum",
  "latitude" : "41.9984101",
  "longitude" : "21.4331205"
}, {
  "id" : "172191987",
  "name" : "Света Богородица - Матка",
  "building" : "church",
  "amenity" : "place_of_worship",
  "tourism" : "attraction",
  "religion" : "christian",
  "latitude" : "41.962135",
  "longitude" : "21.2958384"
}, {
  "id" : "175162437",
  "name" : "Св. Архангел Михаил",
  "name:en" : "Saint Michael the Archangel",
  "addr:city" : "Cкoпje",
  "addr:city:en" : "Skopje",
  "building" : "church",
  "amenity" : "place_of_worship",
  "religion" : "christian",
  "latitude" : "42.0022077",
  "longitude" : "21.4570304"
}, {
  "id" : "175199074",
  "name" : "Saint Michael the Archangel",
  "addr:city" : "Cкoпje",
  "addr:city:en" : "Skopje",
  "denomination" : "macedonian_orthodox",
  "latitude" : "42.0023722",
  "longitude" : "21.4567214"
}, {
  "id" : "175265123",
  "name" : "Соборен храм Свети Климент Охридски",
  "name:en" : "Church of St. Clement of Ohrid",
  "addr:city" : "Cкoпje",
  "addr:city:en" : "Skopje",
  "building" : "church",
  "amenity" : "place_of_worship",
  "tourism" : "attraction",
  "religion" : "christian",
  "latitude" : "41.9982824",
  "longitude" : "21.4264746"
}, {
  "id" : "175391004",
  "name" : "Пресв. Богородица",
  "name:en" : "Holy Mother of God",
  "addr:city" : "Cкoпje",
  "addr:city:en" : "Skopje",
  "building" : "church",
  "amenity" : "place_of_worship",
  "denomination" : "macedonian_orthodox",
  "religion" : "christian",
  "latitude" : "41.9961927",
  "longitude" : "21.4391375"
}, {
  "id" : "175476254",
  "name" : "Градски парк",
  "name:en" : "City Park",
  "tourism" : "attraction",
  "latitude" : "42.0081125",
  "longitude" : "21.4231869"
}, {
  "id" : "175671949",
  "name" : "Св. Ѓорѓи",
  "addr:city" : "Cкoпje",
  "addr:city:en" : "Skopje",
  "building" : "church",
  "amenity" : "place_of_worship",
  "religion" : "christian",
  "latitude" : "42.0120358",
  "longitude" : "21.4437044"
}, {
  "id" : "176040285",
  "name" : "Музеј на Град Скопје",
  "name:en" : "Museum of the City of Skopje",
  "addr:city" : "Cкoпje",
  "addr:city:en" : "Skopje",
  "phone" : "+389 2 3114742",
  "tourism" : "museum",
  "latitude" : "41.9912181",
  "longitude" : "21.4288883"
}, {
  "id" : "176051871",
  "name" : "Спомен куќа на Мајка Тереза",
  "name:en" : "Memorial House of Mother Teresa",
  "addr:city" : "Cкoпje",
  "addr:city:en" : "Skopje",
  "phone" : "+389 2 3290674",
  "opening_hours" : "Mo-Fr 09:00-20:00, Sa-Su 09:00-14:00",
  "tourism" : "museum",
  "latitude" : "41.9939282",
  "longitude" : "21.4307694"
}, {
  "id" : "176176613",
  "name" : "Св. Јован Крстител",
  "addr:city" : "Cкoпje",
  "addr:city:en" : "Skopje",
  "building" : "church",
  "amenity" : "place_of_worship",
  "religion" : "christian",
  "latitude" : "41.9930029",
  "longitude" : "21.4099171"
}, {
  "id" : "176334067",
  "name" : "Св. Георгиј",
  "addr:city" : "Cкoпje",
  "addr:city:en" : "Skopje",
  "building" : "church",
  "amenity" : "place_of_worship",
  "religion" : "christian",
  "latitude" : "42.0121418",
  "longitude" : "21.4241995"
}, {
  "id" : "176448605",
  "name" : "Дом на Градежници",
  "addr:city" : "Cкoпje",
  "addr:city:en" : "Skopje",
  "amenity" : "arts_centre",
  "latitude" : "41.9958385",
  "longitude" : "21.4269004"
}, {
  "id" : "177401426",
  "name" : "Св. Спас",
  "building" : "church",
  "amenity" : "place_of_worship",
  "religion" : "christian",
  "latitude" : "41.9946257",
  "longitude" : "21.5030458"
}, {
  "id" : "177490047",
  "name" : "Марков Манастир",
  "name:en" : "Marko's Monastery",
  "amenity" : "place_of_worship",
  "tourism" : "attraction",
  "religion" : "christian",
  "latitude" : "41.8935685",
  "longitude" : "21.4019815"
}, {
  "id" : "177490048",
  "name" : "Св. Димитрија",
  "building" : "church",
  "amenity" : "place_of_worship",
  "religion" : "christian",
  "latitude" : "41.8935746",
  "longitude" : "21.4021727"
}, {
  "id" : "177518302",
  "name" : "Св. Петка",
  "building" : "church",
  "amenity" : "place_of_worship",
  "religion" : "christian",
  "latitude" : "42.1702918",
  "longitude" : "21.8109533"
}, {
  "id" : "177683948",
  "name" : "Евагелистичка Методистичка Црква",
  "addr:city" : "Cкoпje",
  "addr:city:en" : "Skopje",
  "building" : "church",
  "amenity" : "place_of_worship",
  "religion" : "christian",
  "latitude" : "41.9965678",
  "longitude" : "21.4235502"
}, {
  "id" : "179291828",
  "name" : "Манастир „Свети Наум“",
  "name:en" : "Monastery of Saint Naum",
  "historic" : "church",
  "amenity" : "place_of_worship",
  "tourism" : "attraction",
  "denomination" : "macedonian_orthodox",
  "religion" : "christian",
  "latitude" : "40.913963",
  "longitude" : "20.7404962"
}, {
  "id" : "179607964",
  "name" : "Свети Илија",
  "addr:city" : "Cкoпje",
  "addr:city:en" : "Skopje",
  "building" : "church",
  "amenity" : "place_of_worship",
  "religion" : "christian",
  "latitude" : "41.985899",
  "longitude" : "21.4580119"
}, {
  "id" : "180363121",
  "name" : "Национална галерија на Македонија „Чифте-амам“",
  "name:en" : "Chifte Hammam National Gallery of Macedonia",
  "addr:city" : "Cкoпje",
  "addr:city:en" : "Skopje",
  "phone" : "+389 2 3227986",
  "opening_hours" : "Tu-Su 10:00-18:00",
  "tourism" : "gallery",
  "latitude" : "42.0014097",
  "longitude" : "21.4373979"
}, {
  "id" : "180587526",
  "name" : "Ѓуришки Манастир",
  "amenity" : "place_of_worship",
  "religion" : "christian",
  "latitude" : "41.9032815",
  "longitude" : "21.8375135"
}, {
  "id" : "181715932",
  "name" : "Аквапарк Пробиштип",
  "name:en" : "Aqua Park Probishtip",
  "tourism" : "attraction",
  "latitude" : "42.0059062",
  "longitude" : "22.1755492"
}, {
  "id" : "181727867",
  "name" : "Манастир Св. Јоаким Осоговски",
  "name:en" : "Monastery of St. Joakim Osogovski",
  "historic" : "monastery",
  "tourism" : "attraction",
  "religion" : "christian",
  "latitude" : "42.2091103",
  "longitude" : "22.3613619"
}, {
  "id" : "181727870",
  "name" : "Св. Јоаким Осоговски",
  "name:en" : "St. Joakim Osogovski",
  "amenity" : "place_of_worship",
  "religion" : "christian",
  "latitude" : "42.208686",
  "longitude" : "22.3621875"
}, {
  "id" : "181986735",
  "name" : "Лесновски манастир",
  "name:en" : "Lesnovo Monastery",
  "historic" : "yes",
  "tourism" : "attraction",
  "religion" : "christian",
  "latitude" : "42.0133138",
  "longitude" : "22.2274526"
}, {
  "id" : "181986741",
  "name" : "Св. Архангел Михаил",
  "name:en" : "Saint Michael's Church",
  "amenity" : "place_of_worship",
  "religion" : "christian",
  "latitude" : "42.0133035",
  "longitude" : "22.2281268"
}, {
  "id" : "182451777",
  "name" : "Картинг Клуб",
  "name:en" : "Karting Club",
  "tourism" : "attraction",
  "latitude" : "42.0415006",
  "longitude" : "21.3526797"
}, {
  "id" : "182927657",
  "name" : "Манастир Св. Богородица",
  "name:en" : "St. Holy Mother of God Monastery",
  "historic" : "yes",
  "amenity" : "place_of_worship",
  "tourism" : "attraction",
  "religion" : "christian",
  "latitude" : "42.125697",
  "longitude" : "21.4277654"
}, {
  "id" : "182933841",
  "name" : "Манастир Св. Никола",
  "name:en" : "Saint Nicholas Monastery",
  "historic" : "yes",
  "amenity" : "place_of_worship",
  "tourism" : "attraction",
  "religion" : "christian",
  "latitude" : "42.1100617",
  "longitude" : "21.4694062"
}, {
  "id" : "183590617",
  "name" : "Манастир Св. Илија",
  "name:en" : "Monastery of St. Elijah",
  "amenity" : "place_of_worship",
  "tourism" : "attraction",
  "religion" : "christian",
  "latitude" : "42.0855955",
  "longitude" : "21.4093975"
}, {
  "id" : "184298875",
  "name" : "Манастир Добра Вода",
  "name:en" : "Monastery Dobra Voda",
  "amenity" : "place_of_worship",
  "tourism" : "attraction",
  "religion" : "christian",
  "latitude" : "41.9381449",
  "longitude" : "22.4591283"
}, {
  "id" : "184307286",
  "name" : "Средновековна Кула",
  "name:en" : "Medieval Tower",
  "historic" : "tower",
  "latitude" : "41.9215823",
  "longitude" : "22.4090133"
}, {
  "id" : "184313963",
  "name" : "Средновековна Кула",
  "name:en" : "Medieval Tower",
  "historic" : "tower",
  "latitude" : "41.9234488",
  "longitude" : "22.4120247"
}, {
  "id" : "184613907",
  "name" : "Манастир Св. Пантелејом",
  "name:en" : "Monastery St. Panteleimon",
  "amenity" : "place_of_worship",
  "tourism" : "attraction",
  "religion" : "christian",
  "latitude" : "41.9685849",
  "longitude" : "22.3090906"
}, {
  "id" : "186263287",
  "name" : "Манастир Раѓање на Пресвета Богородица",
  "name:en" : "Monastery Birth of the Holly Mother",
  "amenity" : "place_of_worship",
  "tourism" : "attraction",
  "religion" : "christian",
  "latitude" : "41.6265106",
  "longitude" : "21.1940593"
}, {
  "id" : "188625183",
  "name" : "Манастир Св. Петка",
  "name:en" : "Monastery St. Paraskevi",
  "amenity" : "place_of_worship",
  "tourism" : "attraction",
  "religion" : "christian",
  "latitude" : "41.7896247",
  "longitude" : "22.3272927"
}, {
  "id" : "189884671",
  "name" : "Аквапарк",
  "name:en" : "Aquapark",
  "addr:city" : "Cкoпje",
  "addr:city:en" : "Skopje",
  "opening_hours" : "May-Sep: 10:00-20:00",
  "tourism" : "attraction",
  "latitude" : "42.0114684",
  "longitude" : "21.403485"
}, {
  "id" : "189909367",
  "name" : "Баргала",
  "name:en" : "Bargala",
  "historic" : "ruins",
  "tourism" : "attraction",
  "latitude" : "41.8007957",
  "longitude" : "22.2883548"
}, {
  "id" : "190247470",
  "name" : "Манастир Св. Архангели",
  "name:en" : "Monastery St, Archangels",
  "amenity" : "place_of_worship",
  "religion" : "christian",
  "latitude" : "42.1322905",
  "longitude" : "21.4137215"
}, {
  "id" : "190250979",
  "name" : "Манастир Св. Архангели",
  "name:en" : "Monastery St. Archangels",
  "amenity" : "place_of_worship",
  "tourism" : "attraction",
  "religion" : "christian",
  "latitude" : "42.1322923",
  "longitude" : "21.4137098"
}, {
  "id" : "192121734",
  "name" : "Џамија Ајдар Кади",
  "addr:city" : "Битола",
  "historic" : "yes",
  "amenity" : "place_of_worship",
  "tourism" : "attraction",
  "latitude" : "41.0350971",
  "longitude" : "21.3384364"
}, {
  "id" : "192125506",
  "name" : "Китино Кале",
  "name:en" : "Kita Castle",
  "historic" : "monument",
  "tourism" : "attraction",
  "latitude" : "41.5130747",
  "longitude" : "20.9666504"
}, {
  "id" : "194610965",
  "name" : "Св. Софија",
  "name:en" : "Church of St. Sophia",
  "addr:city" : "Ohrid",
  "building" : "church",
  "amenity" : "place_of_worship",
  "tourism" : "attraction",
  "denomination" : "macedonian_orthodox",
  "religion" : "christian",
  "latitude" : "41.1122375",
  "longitude" : "20.7939374"
}, {
  "id" : "197146942",
  "name" : "Св. Архангел Михаил",
  "name:en" : "St. Michael the Archangel",
  "amenity" : "place_of_worship",
  "denomination" : "macedonian_orthodox",
  "religion" : "christian",
  "latitude" : "41.7639049",
  "longitude" : "20.8373423"
}, {
  "id" : "197929849",
  "name" : "Св. Спас",
  "name:en" : "Holy Salvation",
  "building" : "church",
  "amenity" : "place_of_worship",
  "denomination" : "macedonian_orthodox",
  "religion" : "christian",
  "latitude" : "41.261401",
  "longitude" : "21.4867188"
}, {
  "id" : "198002840",
  "name" : "Св. Ѓорѓија",
  "name:en" : "St. George",
  "building" : "church",
  "amenity" : "place_of_worship",
  "religion" : "christian",
  "latitude" : "42.0243087",
  "longitude" : "21.6759664"
}, {
  "id" : "199050953",
  "name" : "Црква „Св. Петар“",
  "name:en" : "St. Peter's Church",
  "amenity" : "place_of_worship",
  "religion" : "christian",
  "latitude" : "40.8698346",
  "longitude" : "20.9882604"
}, {
  "id" : "199050954",
  "name" : "Црква „Св. Димитриј“",
  "name:en" : "St. Demetrius",
  "amenity" : "place_of_worship",
  "religion" : "christian",
  "latitude" : "40.8686837",
  "longitude" : "20.988398"
}, {
  "id" : "199052359",
  "name" : "Стара базилика",
  "name:en" : "Old Basilica",
  "historic" : "archaeological_site",
  "latitude" : "40.867063",
  "longitude" : "20.9886913"
}, {
  "id" : "199052629",
  "name" : "Римска цистерна",
  "name:en" : "Roman Cistern",
  "historic" : "archaeological_site",
  "latitude" : "40.8681553",
  "longitude" : "20.9903828"
}, {
  "id" : "199056987",
  "name" : "Старохристијанска базилика",
  "historic" : "archaeological_site",
  "latitude" : "40.8688965",
  "longitude" : "20.9908415"
}, {
  "id" : "199056988",
  "name" : "Римска Куќа",
  "historic" : "archaeological_site",
  "latitude" : "40.8685639",
  "longitude" : "20.9909817"
}, {
  "id" : "199056990",
  "name" : "Римска куќа",
  "historic" : "archaeological_site",
  "latitude" : "40.8692944",
  "longitude" : "20.9905255"
}, {
  "id" : "199056991",
  "name" : "Ранохристијанска базилика",
  "historic" : "archaeological_site",
  "latitude" : "40.8692246",
  "longitude" : "20.9909743"
}, {
  "id" : "201390520",
  "name" : "Мавровско Езеро",
  "name:en" : "Mavrovo Lake",
  "tourism" : "attraction",
  "latitude" : "41.696956",
  "longitude" : "20.7471985"
}, {
  "id" : "205985909",
  "name" : "Св. Никола",
  "name:en" : "St. Nicholas",
  "building" : "church",
  "amenity" : "place_of_worship",
  "denomination" : "macedonian_orthodox",
  "religion" : "christian",
  "latitude" : "41.2588989",
  "longitude" : "21.4227476"
}, {
  "id" : "206265206",
  "name" : "Св. Илија",
  "name:en" : "St. Eliyah",
  "building" : "church",
  "amenity" : "place_of_worship",
  "denomination" : "macedonian_orthodox",
  "religion" : "christian",
  "latitude" : "41.3416812",
  "longitude" : "21.3996227"
}, {
  "id" : "206275424",
  "name" : "Св. Троица",
  "name:en" : "Holy Trinity",
  "addr:city" : "Крушево",
  "amenity" : "place_of_worship",
  "denomination" : "macedonian_orthodox",
  "religion" : "christian",
  "latitude" : "41.3651221",
  "longitude" : "21.2530069"
}, {
  "id" : "208711817",
  "name" : "11 Октомври 1941",
  "name:en" : "October the 11th, 1941",
  "tourism" : "museum",
  "latitude" : "41.34503",
  "longitude" : "21.5522424"
}, {
  "id" : "209067749",
  "name" : "Св. Димитриј Солунски",
  "name:en" : "St. Demetrius of Salonica",
  "building" : "church",
  "amenity" : "place_of_worship",
  "denomination" : "macedonian_orthodox",
  "religion" : "christian",
  "latitude" : "41.3893465",
  "longitude" : "21.6425531"
}, {
  "id" : "209092691",
  "name" : "Стоби",
  "name:en" : "Stobi",
  "phone" : "+389 75 210 752",
  "opening_hours" : "Mo-Sa 08:00-16:00",
  "historic" : "archaeological_site",
  "tourism" : "attraction",
  "latitude" : "41.5500415",
  "longitude" : "21.9755211"
}, {
  "id" : "209557106",
  "name" : "Св. Димитриј Солунски",
  "name:en" : "St. Demetrius of Salonica",
  "building" : "church",
  "amenity" : "place_of_worship",
  "denomination" : "macedonian_orthodox",
  "religion" : "christian",
  "latitude" : "41.3375634",
  "longitude" : "21.3287572"
}, {
  "id" : "209649620",
  "name" : "Св. Теодор Тирон",
  "name:en" : "St. Theodor Thiron",
  "building" : "church",
  "amenity" : "place_of_worship",
  "denomination" : "macedonian_orthodox",
  "religion" : "christian",
  "latitude" : "41.3358897",
  "longitude" : "21.335902"
}, {
  "id" : "209649621",
  "name" : "Пресв. Богородица",
  "name:en" : "Holy Mother of God",
  "amenity" : "place_of_worship",
  "denomination" : "macedonian_orthodox",
  "religion" : "christian",
  "latitude" : "41.3354538",
  "longitude" : "21.3291938"
}, {
  "id" : "209650385",
  "name" : "Св. Николај",
  "name:en" : "St. Nicholas",
  "building" : "church",
  "amenity" : "place_of_worship",
  "denomination" : "macedonian_orthodox",
  "religion" : "christian",
  "latitude" : "41.3336525",
  "longitude" : "21.3312995"
}, {
  "id" : "209834821",
  "name" : "Свети Никола",
  "name:en" : "Saint Nicholas",
  "building" : "church",
  "amenity" : "place_of_worship",
  "religion" : "christian",
  "latitude" : "41.2197429",
  "longitude" : "21.2105906"
}, {
  "id" : "210097532",
  "name" : "Преображение Христово",
  "building" : "church",
  "amenity" : "place_of_worship",
  "religion" : "christian",
  "latitude" : "41.6624994",
  "longitude" : "21.2200983"
}, {
  "id" : "210252893",
  "name" : "Пресвета Богородица",
  "name:en" : "Holy Mother",
  "amenity" : "place_of_worship",
  "denomination" : "macedonian_orthodox",
  "religion" : "christian",
  "latitude" : "41.030395",
  "longitude" : "21.3391579"
}, {
  "id" : "210253741",
  "name" : "Св. Недела",
  "name:en" : "St. Domenica",
  "building" : "church",
  "amenity" : "place_of_worship",
  "denomination" : "macedonian_orthodox",
  "religion" : "christian",
  "latitude" : "41.0407027",
  "longitude" : "21.3489261"
}, {
  "id" : "212404400",
  "name" : "Манастир Св. Архангел Михаил",
  "amenity" : "place_of_worship",
  "tourism" : "attraction",
  "religion" : "christian",
  "latitude" : "40.9700239",
  "longitude" : "21.6423476"
}, {
  "id" : "212703196",
  "name" : "Цареви Кули",
  "name:en" : "Czar’s Towers",
  "historic" : "archaeological_site",
  "tourism" : "attraction",
  "latitude" : "41.4326225",
  "longitude" : "22.6296717"
}, {
  "id" : "212703220",
  "name" : "Св. Илија",
  "name:en" : "St. Elijah",
  "amenity" : "place_of_worship",
  "tourism" : "attraction",
  "religion" : "christian",
  "latitude" : "41.4296682",
  "longitude" : "22.6130495"
}, {
  "id" : "216591495",
  "name" : "Св. Константин и Елена",
  "name:en" : "Sts. Constantine and Helena",
  "building" : "church",
  "amenity" : "place_of_worship",
  "denomination" : "macedonian_orthodox",
  "religion" : "christian",
  "latitude" : "41.2649846",
  "longitude" : "21.437548"
}, {
  "id" : "217452210",
  "name" : "Св. Петка",
  "name:en" : "St. Parascheva",
  "building" : "church",
  "amenity" : "place_of_worship",
  "denomination" : "macedonian_orthodox",
  "religion" : "christian",
  "latitude" : "41.3650976",
  "longitude" : "21.2415612"
}, {
  "id" : "217467174",
  "name" : "Никола Мартиноски",
  "name:en" : "Nikola Martinoski",
  "tourism" : "gallery",
  "latitude" : "41.3689154",
  "longitude" : "21.2522016"
}, {
  "id" : "217561610",
  "name" : "Музеј на НОВ",
  "tourism" : "museum",
  "latitude" : "41.3757107",
  "longitude" : "21.2457177"
}, {
  "id" : "217563724",
  "name" : "Спомен куќа Тоше Проески",
  "historic" : "memorial",
  "latitude" : "41.3743763",
  "longitude" : "21.2460773"
}, {
  "id" : "217568679",
  "name" : "Македониум",
  "historic" : "monument",
  "tourism" : "museum",
  "latitude" : "41.3775293",
  "longitude" : "21.248402"
}, {
  "id" : "217836998",
  "name" : "Базилика \"Свети Еразмо\"",
  "historic" : "ruins",
  "latitude" : "41.140609",
  "longitude" : "20.7635431"
}, {
  "id" : "217849357",
  "name" : "Манастир „Свети Наум",
  "name:en" : "The Monastery of Saint Naum",
  "historic" : "monastery",
  "latitude" : "40.9140882",
  "longitude" : "20.7404917"
}, {
  "id" : "217931793",
  "name" : "Залив на Коските",
  "name:en" : "Bay of Bones",
  "opening_hours" : "Tu-Su 09:00-16:15",
  "tourism" : "museum",
  "tourism_1" : "attraction",
  "latitude" : "40.9946609",
  "longitude" : "20.7979124"
}, {
  "id" : "219775049",
  "name" : "Света Богородица",
  "name:en" : "Saint The Mother of God",
  "amenity" : "place_of_worship",
  "tourism" : "attraction",
  "religion" : "christian",
  "latitude" : "40.910244",
  "longitude" : "20.7452763"
}, {
  "id" : "219789600",
  "name" : "Свети Атанасиј",
  "name:en" : "Saint Athanasius",
  "building" : "church",
  "amenity" : "place_of_worship",
  "latitude" : "40.911393",
  "longitude" : "20.7492303"
}, {
  "id" : "219799845",
  "name" : "Свети Илија",
  "amenity" : "place_of_worship",
  "religion" : "christian",
  "latitude" : "40.8783463",
  "longitude" : "21.3579069"
}, {
  "id" : "219827428",
  "name" : "Остречка Џамија",
  "amenity" : "place_of_worship",
  "latitude" : "40.9295187",
  "longitude" : "21.2994692"
}, {
  "id" : "220089578",
  "name" : "Чарши Џамија",
  "name:en" : "Charshi Mosque",
  "amenity" : "place_of_worship",
  "latitude" : "41.3454049",
  "longitude" : "21.5553254"
}, {
  "id" : "220246861",
  "name" : "Св. Јован Крстител",
  "name:en" : "St. John the Baptist",
  "amenity" : "place_of_worship",
  "religion" : "christian",
  "latitude" : "41.4614467",
  "longitude" : "21.5704026"
}, {
  "id" : "222662720",
  "name" : "Metropolis Beach",
  "tourism" : "attraction",
  "latitude" : "41.0791672",
  "longitude" : "20.7995331"
}, {
  "id" : "222848320",
  "name" : "Крушевски Манастир",
  "name:en" : "Monastery of Krushevo",
  "denomination" : "macedonian_orthodox",
  "religion" : "christian",
  "latitude" : "41.3566728",
  "longitude" : "21.266672"
}, {
  "id" : "223008200",
  "name" : "Кале",
  "historic" : "archaeological_site",
  "latitude" : "41.2574154",
  "longitude" : "21.3140441"
}, {
  "id" : "223427542",
  "name" : "Св. Петар и Павле",
  "name:en" : "St. Peter and Paul",
  "building" : "church",
  "amenity" : "place_of_worship",
  "religion" : "christian",
  "latitude" : "42.0092594",
  "longitude" : "21.3618767"
}, {
  "id" : "223539604",
  "name" : "Св. Злата Мегленска",
  "building" : "church",
  "amenity" : "place_of_worship",
  "religion" : "christian",
  "latitude" : "42.0040936",
  "longitude" : "21.3328586"
}, {
  "id" : "223556985",
  "name" : "Husein Shah",
  "amenity" : "place_of_worship",
  "latitude" : "42.0018102",
  "longitude" : "21.3310723"
}, {
  "id" : "223869150",
  "name" : "Св. Спас",
  "name:en" : "Church of the Holy Savior",
  "addr:city" : "Орман",
  "amenity" : "place_of_worship",
  "religion" : "christian",
  "latitude" : "42.0700853",
  "longitude" : "21.3556185"
}, {
  "id" : "223970616",
  "name" : "Св. Јован Крстител",
  "name:en" : "St. John The Baptist",
  "amenity" : "place_of_worship",
  "religion" : "christian",
  "latitude" : "41.3695959",
  "longitude" : "21.2493786"
}, {
  "id" : "224099193",
  "name" : "Црвка Свети Никола",
  "name:en" : "Church of Saint Nicholas",
  "amenity" : "place_of_worship",
  "religion" : "christian",
  "latitude" : "41.3684197",
  "longitude" : "21.2489142"
}, {
  "id" : "224113828",
  "name" : "Успение на Пресвета Богородица",
  "name:en" : "Assumption of the Most Holy Mother of God",
  "addr:city" : "Крушево",
  "phone" : "+38977790350;+38971323173",
  "amenity" : "place_of_worship",
  "religion" : "christian",
  "latitude" : "41.3697596",
  "longitude" : "21.2462787"
}, {
  "id" : "224254694",
  "name" : "Музеј на Илинденското востание и Крушевската Република",
  "name:en" : "Museum of the Ilinden Uprising and the Republic of Krushevo",
  "addr:city" : "Крушево",
  "phone" : "+38970619597;+38970356621",
  "tourism" : "museum",
  "latitude" : "41.3691154",
  "longitude" : "21.2452388"
}, {
  "id" : "224479816",
  "name" : "Манастир Св. Илија",
  "name:en" : "Monastery St. Elijah",
  "amenity" : "place_of_worship",
  "tourism" : "attraction",
  "religion" : "christian",
  "latitude" : "42.1299955",
  "longitude" : "21.3872656"
}, {
  "id" : "224656219",
  "name" : "Манастир Св. Христофор",
  "name:en" : "Monastery St. Christopher",
  "amenity" : "place_of_worship",
  "tourism" : "attraction",
  "latitude" : "40.9887262",
  "longitude" : "21.3410819"
}, {
  "id" : "224671004",
  "name" : "Св. Еремија",
  "amenity" : "place_of_worship",
  "religion" : "christian",
  "latitude" : "41.945457",
  "longitude" : "21.4836224"
}, {
  "id" : "226160304",
  "name" : "Roman Theater of Heraclea Lyncestis",
  "name:en" : "Roman Theater of Heraclea Lyncestis",
  "historic" : "ruins",
  "latitude" : "41.0114511",
  "longitude" : "21.3425547"
}, {
  "id" : "226161294",
  "name" : "Антички театар",
  "name:en" : "ancient theater of Stobi",
  "historic" : "ruins",
  "latitude" : "41.5515315",
  "longitude" : "21.9752721"
}, {
  "id" : "227215120",
  "name" : "Sulltan Bejazit",
  "amenity" : "place_of_worship",
  "latitude" : "41.5145614",
  "longitude" : "20.9630497"
}, {
  "id" : "227295208",
  "name" : "Камена",
  "name:en" : "Kamena",
  "amenity" : "place_of_worship",
  "latitude" : "41.478356",
  "longitude" : "21.3142734"
}, {
  "id" : "227433408",
  "name" : "Вардарски Рид",
  "name:en" : "Vardar Hill",
  "historic" : "archaeological_site",
  "tourism" : "attraction",
  "latitude" : "41.1493831",
  "longitude" : "22.5215329"
}, {
  "id" : "227918811",
  "name" : "Бигорски Манастир",
  "name:en" : "Bigorski Monastery",
  "tourism" : "attraction",
  "religion" : "christian",
  "latitude" : "41.6216704",
  "longitude" : "20.6089946"
}, {
  "id" : "227939343",
  "name" : "Црква Св. Кузман и Дамјан - Триангла",
  "amenity" : "place_of_worship",
  "religion" : "christian",
  "latitude" : "41.9988564",
  "longitude" : "21.4923594"
}, {
  "id" : "228209293",
  "name" : "Вевчански Извори",
  "name:en" : "Vevchani Springs",
  "tourism" : "attraction",
  "latitude" : "41.2396675",
  "longitude" : "20.5848529"
}, {
  "id" : "229632394",
  "name" : "Isar-Marvinci",
  "historic" : "archaeological_site",
  "latitude" : "41.2780309",
  "longitude" : "22.4935572"
}, {
  "id" : "229930502",
  "name" : "Археолошки музеј на Македонија",
  "name:en" : "Archaeological Museum of Macedonia",
  "addr:city" : "Cкoпje",
  "addr:city:en" : "Skopje",
  "opening_hours" : "Tu-Su 10:00-18:00",
  "tourism" : "museum",
  "latitude" : "41.9970517",
  "longitude" : "21.4340186"
}, {
  "id" : "229939246",
  "name" : "Милениумски крст",
  "name:en" : "Millennium Cross",
  "tourism" : "attraction",
  "latitude" : "41.965077",
  "longitude" : "21.3943447"
}, {
  "id" : "230351059",
  "name" : "Св. Атанас",
  "building" : "church",
  "amenity" : "place_of_worship",
  "religion" : "christian",
  "latitude" : "41.9712482",
  "longitude" : "21.3100148"
}, {
  "id" : "231344771",
  "name" : "Тумба Маџари",
  "name:en" : "Tumba Madzhari",
  "historic" : "archaeological_site",
  "tourism" : "attraction",
  "latitude" : "42.0017126",
  "longitude" : "21.5048038"
}, {
  "id" : "232843018",
  "name" : "Маркови Кули",
  "name:en" : "Markovi Kuli",
  "historic" : "castle",
  "tourism" : "attraction",
  "latitude" : "41.8381428",
  "longitude" : "21.6990121"
}, {
  "id" : "233274323",
  "name" : "Македонска православна црква – Охридска архиепископија",
  "name:en" : "Macedonian Orthodox Church – Ohrid Archbishopric",
  "religion" : "christian",
  "latitude" : "41.1139618",
  "longitude" : "20.7957467"
}, {
  "id" : "233274330",
  "name" : "Св. Јован Канео",
  "name:en" : "St. John Kaneo",
  "building" : "church",
  "amenity" : "place_of_worship",
  "religion" : "christian",
  "latitude" : "41.1111762",
  "longitude" : "20.7886328"
}, {
  "id" : "235728306",
  "name" : "Пештерна Црква \"Св. Богородица\" - Калишта",
  "name:en" : "Cave Church \"Holy Mother of God\" - Kalishta",
  "building" : "church",
  "amenity" : "place_of_worship",
  "religion" : "christian",
  "latitude" : "41.1447305",
  "longitude" : "20.650194"
}, {
  "id" : "236587123",
  "name" : "Св. Преображение",
  "name:en" : "Holy Tranfiguration",
  "building" : "church",
  "amenity" : "place_of_worship",
  "denomination" : "macedonian_orthodox",
  "religion" : "christian",
  "latitude" : "41.3883778",
  "longitude" : "20.656571"
}, {
  "id" : "239422349",
  "name" : "Порта Македонија",
  "name:en" : "Porta Macedonia",
  "addr:city" : "Cкoпje",
  "addr:city:en" : "Skopje",
  "phone" : "+389 2 3151141",
  "historic" : "monument",
  "latitude" : "41.9944587",
  "longitude" : "21.4322421"
}, {
  "id" : "240346454",
  "name" : "Градиште",
  "name:en" : "Gradishte",
  "historic" : "archaeological_site",
  "latitude" : "41.2404842",
  "longitude" : "21.217376"
}, {
  "id" : "240622276",
  "name" : "Св. Никола",
  "name:en" : "St. Nicholas",
  "amenity" : "place_of_worship",
  "religion" : "christian",
  "latitude" : "41.2486746",
  "longitude" : "21.3947772"
}, {
  "id" : "240622723",
  "name" : "Стибера",
  "historic" : "archaeological_site",
  "latitude" : "41.2442547",
  "longitude" : "21.3984167"
}, {
  "id" : "241085465",
  "name" : "Шарена Џамија",
  "name:en" : "Pasha's Mosque",
  "addr:city" : "Tetovo",
  "opening_hours" : "24/7",
  "historic" : "yes",
  "amenity" : "place_of_worship",
  "tourism" : "attraction",
  "latitude" : "42.0058475",
  "longitude" : "20.9667672"
}, {
  "id" : "241887626",
  "name" : "ana",
  "amenity" : "place_of_worship",
  "latitude" : "41.0283462",
  "longitude" : "21.1143852"
}, {
  "id" : "243981081",
  "name" : "Стибера",
  "name:en" : "Stibera",
  "historic" : "archaeological_site",
  "latitude" : "41.2441541",
  "longitude" : "21.3974596"
}, {
  "id" : "244812164",
  "name" : "Ел Калем",
  "tourism" : "museum",
  "latitude" : "41.987037",
  "longitude" : "21.287509"
}, {
  "id" : "246171790",
  "name" : "Црква \"Пресвета Богородица\"",
  "name:en" : "Church \"Тhe Blessed Mother of God\"",
  "amenity" : "place_of_worship",
  "religion" : "christian",
  "latitude" : "41.7932548",
  "longitude" : "20.9108785"
}, {
  "id" : "247817665",
  "name" : "Св.Спас",
  "name:en" : "Holy Saviour Church",
  "building" : "church",
  "amenity" : "place_of_worship",
  "religion" : "christian",
  "latitude" : "41.9350625",
  "longitude" : "21.5176547"
}, {
  "id" : "248662336",
  "name" : "Црква „Св. Григориј Палама и Димитриј“",
  "building" : "church",
  "amenity" : "place_of_worship",
  "religion" : "christian",
  "latitude" : "41.4369344",
  "longitude" : "22.6440058"
}, {
  "id" : "264336638",
  "name" : "Џамија Центар Жировница",
  "name:en" : "Mosque Center",
  "amenity" : "place_of_worship",
  "latitude" : "41.6737826",
  "longitude" : "20.585904"
}, {
  "id" : "265053393",
  "name" : "Саат Џамија;Bey Mahala",
  "name:en" : "The Clock Mosque",
  "amenity" : "place_of_worship",
  "latitude" : "41.7951304",
  "longitude" : "20.9109599"
}, {
  "id" : "266298277",
  "name" : "Dzamija Dolno Maalo",
  "amenity" : "place_of_worship",
  "latitude" : "41.6737698",
  "longitude" : "20.5907462"
}, {
  "id" : "266298397",
  "name" : "Dzamija Gorno Maalo",
  "amenity" : "place_of_worship",
  "latitude" : "41.6760709",
  "longitude" : "20.5838882"
}, {
  "id" : "266824490",
  "name" : "Црква \"Свети Ѓорѓија\"",
  "name:en" : "Church \"Saint George\"",
  "amenity" : "place_of_worship",
  "religion" : "christian",
  "latitude" : "41.7920402",
  "longitude" : "20.8779475"
}, {
  "id" : "267077609",
  "name" : "Црква \"Свети Ѓорѓија\"",
  "name:en" : "Chirch \"Saint George\"",
  "amenity" : "place_of_worship",
  "religion" : "christian",
  "latitude" : "41.81856",
  "longitude" : "20.8767101"
}, {
  "id" : "267214771",
  "name" : "Xhamia e Kadrit",
  "amenity" : "place_of_worship",
  "latitude" : "41.7942753",
  "longitude" : "20.8933926"
}, {
  "id" : "268394494",
  "name" : "Црква \"Свети Никола\"",
  "name:en" : "\"Saint Nicolas\" Church",
  "amenity" : "place_of_worship",
  "religion" : "christian",
  "latitude" : "41.7580574",
  "longitude" : "20.8787335"
}, {
  "id" : "268599233",
  "name" : "Црква \"Св. Јован Крстител\"",
  "name:en" : "\"John the Baptist\" Church",
  "amenity" : "place_of_worship",
  "religion" : "christian",
  "latitude" : "41.7333058",
  "longitude" : "20.828356"
}, {
  "id" : "268599844",
  "name" : "Црква \"Св. Никола\"",
  "name:en" : "\"Saint Nicolas\" Church",
  "amenity" : "place_of_worship",
  "religion" : "christian",
  "latitude" : "41.7218639",
  "longitude" : "20.8446443"
}, {
  "id" : "268599845",
  "name" : "Црква \"Св. Богородица\"",
  "name:en" : "\"Saint Mother of God\" Church",
  "amenity" : "place_of_worship",
  "religion" : "christian",
  "latitude" : "41.7045076",
  "longitude" : "20.8443823"
}, {
  "id" : "269914945",
  "name" : "Црква Св. Атанасиј",
  "amenity" : "place_of_worship",
  "religion" : "christian",
  "latitude" : "41.966404",
  "longitude" : "20.9812813"
}, {
  "id" : "270207216",
  "name" : "Црква Свети Никола - Геракомија",
  "name:en" : "Church of St. Nicholas - Gerakomija",
  "amenity" : "place_of_worship",
  "religion" : "christian",
  "latitude" : "41.1122949",
  "longitude" : "20.7947761"
}, {
  "id" : "271750851",
  "name" : "Св. Спас",
  "building" : "church",
  "amenity" : "place_of_worship",
  "religion" : "christian",
  "latitude" : "41.7069248",
  "longitude" : "21.789099"
}, {
  "id" : "277527235",
  "name" : "Св. Атанасиј",
  "amenity" : "place_of_worship",
  "denomination" : "macedonian_orthodox",
  "religion" : "christian",
  "latitude" : "41.3804097",
  "longitude" : "21.4116411"
}, {
  "id" : "288270474",
  "name" : "Xhamia e Loke",
  "amenity" : "place_of_worship",
  "latitude" : "41.8345582",
  "longitude" : "20.9704884"
}, {
  "id" : "288270528",
  "name" : "Xhamia në dalje të Çegranit",
  "amenity" : "place_of_worship",
  "latitude" : "41.845571",
  "longitude" : "20.9785624"
}, {
  "id" : "295526113",
  "name" : "Араста-џамија",
  "name:en" : "Arasta Mosque",
  "addr:city" : "Cкoпje",
  "addr:city:en" : "Skopje",
  "amenity" : "place_of_worship",
  "latitude" : "42.00191",
  "longitude" : "21.4370676"
}, {
  "id" : "295526114",
  "name" : "Безистен",
  "addr:city" : "skopje",
  "historic" : "yes",
  "latitude" : "42.0015297",
  "longitude" : "21.4372506"
}, {
  "id" : "299665984",
  "name" : "Црква „Св. Атанасиј“",
  "addr:city" : "Radiovce",
  "building" : "church",
  "latitude" : "41.9054735",
  "longitude" : "20.9622874"
}, {
  "id" : "299666061",
  "name" : "Црква „Св. Атанасиј“",
  "religion" : "christian",
  "latitude" : "41.9056038",
  "longitude" : "20.9620959"
}, {
  "id" : "299667131",
  "name" : "Џамија во Радиовце",
  "addr:city" : "Radiovce",
  "amenity" : "place_of_worship",
  "latitude" : "41.9076687",
  "longitude" : "20.9650556"
}, {
  "id" : "299894835",
  "name" : "Црква „Св. Никола“ - Теново",
  "religion" : "christian",
  "latitude" : "41.8949569",
  "longitude" : "20.9836971"
}, {
  "id" : "299894872",
  "name" : "Црква „Св. Никола“",
  "addr:city" : "Tenovo",
  "amenity" : "place_of_worship",
  "religion" : "christian",
  "latitude" : "41.8949945",
  "longitude" : "20.9839735"
}, {
  "id" : "299895257",
  "name" : "Стара џамија во Теново",
  "addr:city" : "Tenovo",
  "amenity" : "place_of_worship",
  "latitude" : "41.8950423",
  "longitude" : "20.9842482"
}, {
  "id" : "299895325",
  "name" : "Нова џамија во Теново",
  "addr:city" : "Tenovo",
  "amenity" : "place_of_worship",
  "latitude" : "41.8922406",
  "longitude" : "20.9782737"
}, {
  "id" : "305388566",
  "name" : "Алипашина џамија",
  "name:en" : "Ali Pasha Mosque",
  "amenity" : "place_of_worship",
  "latitude" : "41.1156133",
  "longitude" : "20.8005311"
}, {
  "id" : "305673429",
  "name" : "Света Богородица Болничка",
  "building" : "church",
  "amenity" : "place_of_worship",
  "religion" : "christian",
  "latitude" : "41.1123109",
  "longitude" : "20.7972324"
}, {
  "id" : "326502247",
  "name" : "Света Троица",
  "name:en" : "Holy Trinity",
  "building" : "church",
  "amenity" : "place_of_worship",
  "religion" : "christian",
  "latitude" : "41.3944616",
  "longitude" : "21.3264901"
}, {
  "id" : "326807166",
  "name" : "Св. Атанасиј Велики",
  "amenity" : "place_of_worship",
  "religion" : "christian",
  "latitude" : "41.3664227",
  "longitude" : "21.3164435"
}, {
  "id" : "327369842",
  "name" : "Црква Св. Константин и Елена",
  "name:en" : "Church of St. Constantine and Helen",
  "building" : "church",
  "latitude" : "41.9934751",
  "longitude" : "21.4306982"
}, {
  "id" : "332069032",
  "name" : "Св. Константин и Елена",
  "name:en" : "St. Constantine and Helen",
  "amenity" : "place_of_worship",
  "denomination" : "macedonian_orthodox",
  "religion" : "christian",
  "latitude" : "41.3515093",
  "longitude" : "21.5636088"
}, {
  "id" : "334220751",
  "name" : "Св. Атанасиј",
  "addr:city" : "Прилеп",
  "amenity" : "place_of_worship",
  "denomination" : "macedonian_orthodox",
  "religion" : "christian",
  "latitude" : "41.3594263",
  "longitude" : "21.532549"
}, {
  "id" : "334220752",
  "name" : "Св. Архангел Михаил",
  "name:en" : "St. Archangel Michael",
  "addr:city" : "Прилеп",
  "amenity" : "place_of_worship",
  "denomination" : "macedonian_orthodox",
  "religion" : "christian",
  "latitude" : "41.3603981",
  "longitude" : "21.5343815"
}, {
  "id" : "334220753",
  "name" : "Варошки Манастир",
  "name:en" : "Monastery of Varosh",
  "opening_hours" : "Mo-Sa 07:00-16:00",
  "religion" : "christian",
  "latitude" : "41.3602589",
  "longitude" : "21.53383"
}, {
  "id" : "334221236",
  "name" : "Св. Богородица",
  "amenity" : "place_of_worship",
  "religion" : "christian",
  "latitude" : "41.3582456",
  "longitude" : "21.5342975"
}, {
  "id" : "334221237",
  "name" : "Св. Димитрија",
  "amenity" : "place_of_worship",
  "religion" : "christian",
  "latitude" : "41.3578192",
  "longitude" : "21.5317377"
}, {
  "id" : "334367008",
  "name" : "Св. Недела",
  "name:en" : "St. Domenica",
  "amenity" : "place_of_worship",
  "denomination" : "macedonian_orthodox",
  "religion" : "christian",
  "latitude" : "41.4722113",
  "longitude" : "21.4601343"
}, {
  "id" : "334368547",
  "name" : "Св. Илија",
  "name:en" : "St. Eliyah",
  "amenity" : "place_of_worship",
  "denomination" : "macedonian_orthodox",
  "religion" : "christian",
  "latitude" : "41.4670724",
  "longitude" : "21.4622961"
}, {
  "id" : "334368552",
  "name" : "Браиловски Манастир",
  "name:en" : "Monastery of Brailovo",
  "religion" : "christian",
  "latitude" : "41.466849",
  "longitude" : "21.4629407"
}, {
  "id" : "334374287",
  "name" : "Св. Георгиј",
  "name:en" : "St. George",
  "amenity" : "place_of_worship",
  "denomination" : "macedonian_orthodox",
  "religion" : "christian",
  "latitude" : "41.5013024",
  "longitude" : "21.4518228"
}, {
  "id" : "334375611",
  "name" : "Св. Никола",
  "name:en" : "St. Nicholas",
  "amenity" : "place_of_worship",
  "denomination" : "macedonian_orthodox",
  "religion" : "christian",
  "latitude" : "41.5026578",
  "longitude" : "21.4649483"
}, {
  "id" : "334375616",
  "name" : "Слепченски Манастир",
  "name:en" : "Monastery of Slepche",
  "religion" : "christian",
  "latitude" : "41.5023985",
  "longitude" : "21.465089"
}, {
  "id" : "334627272",
  "name" : "Св. Петар и Павле",
  "amenity" : "place_of_worship",
  "religion" : "christian",
  "latitude" : "41.3565666",
  "longitude" : "21.5365779"
}, {
  "id" : "334627273",
  "name" : "Св. Никола",
  "amenity" : "place_of_worship",
  "denomination" : "macedonian_orthodox",
  "religion" : "christian",
  "latitude" : "41.3571979",
  "longitude" : "21.5338376"
}, {
  "id" : "334649006",
  "name" : "Антигона",
  "historic" : "archaeological_site",
  "latitude" : "41.5022631",
  "longitude" : "22.100127"
}, {
  "id" : "334883424",
  "name" : "Св. Петка",
  "name:en" : "St. Parascheva",
  "amenity" : "place_of_worship",
  "denomination" : "macedonian_orthodox",
  "religion" : "christian",
  "latitude" : "41.3588735",
  "longitude" : "21.6269578"
}, {
  "id" : "337651480",
  "name" : "Св. Илија",
  "name:en" : "St. Eliyah",
  "amenity" : "place_of_worship",
  "religion" : "christian",
  "latitude" : "41.5626389",
  "longitude" : "21.4065907"
}, {
  "id" : "337651482",
  "name" : "Св. Недела",
  "name:en" : "St. Domenica",
  "amenity" : "place_of_worship",
  "religion" : "christian",
  "latitude" : "41.5684221",
  "longitude" : "21.4085531"
}, {
  "id" : "337651483",
  "name" : "Строшки Манастир / Стровјански Манастир",
  "name:en" : "Monastery of Strovja",
  "religion" : "christian",
  "latitude" : "41.5688094",
  "longitude" : "21.4077471"
}, {
  "id" : "337656895",
  "name" : "Св. Илија",
  "name:en" : "St. Eliyah",
  "amenity" : "place_of_worship",
  "denomination" : "macedonian_orthodox",
  "religion" : "christian",
  "latitude" : "41.5372247",
  "longitude" : "21.3725561"
}, {
  "id" : "337660003",
  "name" : "Успение на Пресвета Богородица",
  "name:en" : "Dormition of Holy Mother of God",
  "amenity" : "place_of_worship",
  "denomination" : "macedonian_orthodox",
  "religion" : "christian",
  "latitude" : "41.5358668",
  "longitude" : "21.3650184"
}, {
  "id" : "337770518",
  "name" : "Св. Атанасиј",
  "name:en" : "St. Athanasius",
  "amenity" : "place_of_worship",
  "denomination" : "macedonian_orthodox",
  "religion" : "christian",
  "latitude" : "41.4874316",
  "longitude" : "21.3607967"
}, {
  "id" : "337787674",
  "name" : "Св. Троица",
  "name:en" : "Holy Trinity",
  "amenity" : "place_of_worship",
  "religion" : "christian",
  "latitude" : "41.4516647",
  "longitude" : "21.3732901"
}, {
  "id" : "338675543",
  "name" : "Могила на непобедените",
  "name:en" : "Mound of the undefeated",
  "historic" : "memorial",
  "tourism" : "attraction",
  "latitude" : "41.333929",
  "longitude" : "21.5547667"
}, {
  "id" : "355764175",
  "name" : "Еврејска заедница во Република Македонија",
  "name:en" : "Jewish Community in the Republic of Macedonia",
  "addr:city" : "Cкoпje",
  "addr:city:en" : "Skopje",
  "amenity" : "place_of_worship",
  "latitude" : "41.9977235",
  "longitude" : "21.4197481"
}, {
  "id" : "356219819",
  "name" : "Св. Георгиј",
  "name:en" : "St. George",
  "amenity" : "place_of_worship",
  "tourism" : "attraction",
  "denomination" : "macedonian_orthodox",
  "religion" : "christian",
  "latitude" : "40.9860455",
  "longitude" : "21.0850433"
}, {
  "id" : "356302520",
  "name" : "Св. Великомаченик Георгиј",
  "name:en" : "Church of St. George",
  "addr:city" : "Старо Нагоричане",
  "historic" : "church",
  "amenity" : "place_of_worship",
  "tourism" : "attraction",
  "religion" : "christian",
  "latitude" : "42.198478",
  "longitude" : "21.8283274"
}, {
  "id" : "356304968",
  "name" : "Св. Јован Крстител",
  "building" : "church",
  "amenity" : "place_of_worship",
  "tourism" : "attraction",
  "religion" : "christian",
  "latitude" : "41.6212572",
  "longitude" : "20.6092921"
}, {
  "id" : "358200227",
  "name" : "Манастир Св. Ѓорѓи",
  "amenity" : "place_of_worship",
  "religion" : "christian",
  "latitude" : "41.6457968",
  "longitude" : "22.5086272"
}, {
  "id" : "359584986",
  "name" : "Црква Св. Кирил и Методиј и Св. Бенедикт",
  "addr:city" : "Охрид",
  "building" : "church",
  "amenity" : "place_of_worship",
  "religion" : "christian",
  "latitude" : "41.1110758",
  "longitude" : "20.8048116"
}, {
  "id" : "359803976",
  "name" : "Св. Константин и Елена",
  "name:en" : "St. Constantine and Helen",
  "amenity" : "place_of_worship",
  "denomination" : "macedonian_orthodox",
  "religion" : "christian",
  "latitude" : "42.1326747",
  "longitude" : "21.1224542"
}, {
  "id" : "362619672",
  "name" : "Чебренски Манастир",
  "amenity" : "place_of_worship",
  "religion" : "christian",
  "latitude" : "41.1330271",
  "longitude" : "21.6797859"
}, {
  "id" : "362621751",
  "name" : "Св. Атанасиј",
  "amenity" : "place_of_worship",
  "religion" : "christian",
  "latitude" : "41.0862188",
  "longitude" : "21.7189094"
}, {
  "id" : "365667200",
  "name" : "Св. Јован Крстител",
  "name:en" : "Sv. Jovan Krstitel",
  "addr:city" : "Ѕвегор",
  "amenity" : "place_of_worship",
  "religion" : "christian",
  "latitude" : "41.9677292",
  "longitude" : "22.8075895"
}, {
  "id" : "366449705",
  "name" : "Градска сцена",
  "addr:city" : "Делчево",
  "amenity" : "arts_centre",
  "latitude" : "41.9663319",
  "longitude" : "22.7720016"
}, {
  "id" : "369651291",
  "name" : "Света Троица",
  "name:en" : "Тhe church of the holly Trinity",
  "amenity" : "place_of_worship",
  "religion" : "christian",
  "latitude" : "42.029614",
  "longitude" : "21.3784496"
}, {
  "id" : "372379950",
  "name" : "Пресвета Богородица",
  "name:en" : "Holy Mother of God",
  "amenity" : "place_of_worship",
  "denomination" : "macedonian_orthodox",
  "religion" : "christian",
  "latitude" : "41.5137243",
  "longitude" : "21.2140244"
}, {
  "id" : "374361514",
  "name" : "Тулбе",
  "name:en" : "Tulbe",
  "addr:city" : "Македонски Брод",
  "amenity" : "place_of_worship",
  "denomination" : "macedonian_orthodox",
  "religion" : "christian",
  "latitude" : "41.5086632",
  "longitude" : "21.2149659"
}, {
  "id" : "375120196",
  "name" : "Св. Атанасиј",
  "name:en" : "St. Athanasius",
  "building" : "church",
  "latitude" : "41.3428899",
  "longitude" : "22.4414488"
}, {
  "id" : "388871332",
  "name" : "Јавна Соба",
  "name:en" : "Public Room",
  "addr:city" : "Cкoпje",
  "addr:city:en" : "Skopje",
  "phone" : "+389 2 6092650",
  "opening_hours" : "08:00-24:00",
  "shop" : "art",
  "latitude" : "41.9900338",
  "longitude" : "21.4258958"
}, {
  "id" : "393237748",
  "name" : "Турбе на Иса-бег",
  "name:en" : "Tomb of Ishak Bey",
  "amenity" : "place_of_worship",
  "latitude" : "42.0024281",
  "longitude" : "21.4415165"
}, {
  "id" : "404975011",
  "name" : "Црква Св. Атанасиј",
  "amenity" : "place_of_worship",
  "religion" : "christian",
  "latitude" : "40.9233256",
  "longitude" : "21.4576834"
}, {
  "id" : "404975016",
  "name" : "Kınalı Camii",
  "amenity" : "place_of_worship",
  "latitude" : "40.9249064",
  "longitude" : "21.4611196"
}, {
  "id" : "405710098",
  "name" : "Св. Спас",
  "amenity" : "place_of_worship",
  "religion" : "christian",
  "latitude" : "41.1390387",
  "longitude" : "22.5107982"
}, {
  "id" : "405710100",
  "name" : "Гевгелиски манастир",
  "religion" : "christian",
  "latitude" : "41.1386297",
  "longitude" : "22.5103523"
}, {
  "id" : "406222434",
  "name" : "Покров на Пресвета Богородица",
  "name:en" : "Shroud of the Most Holy Mother of God",
  "amenity" : "place_of_worship",
  "denomination" : "macedonian_orthodox",
  "religion" : "christian",
  "latitude" : "41.322145",
  "longitude" : "21.5609366"
}, {
  "id" : "406222435",
  "name" : "Нов Селечки Манастир",
  "name:en" : "New monastery of Selce",
  "religion" : "christian",
  "latitude" : "41.3224258",
  "longitude" : "21.5614053"
}, {
  "id" : "407196924",
  "name" : "Рождество на Пресвета Богородица",
  "name:en" : "Nativity of Virgin Mary",
  "amenity" : "place_of_worship",
  "denomination" : "macedonian_orthodox",
  "religion" : "christian",
  "latitude" : "41.3053504",
  "longitude" : "21.4576043"
}, {
  "id" : "407209454",
  "name" : "Св. Атанасиј",
  "name:en" : "St. Athanasius",
  "amenity" : "place_of_worship",
  "denomination" : "macedonian_orthodox",
  "religion" : "christian",
  "latitude" : "41.3035045",
  "longitude" : "21.470492"
}, {
  "id" : "407549889",
  "name" : "Св.Талалеј",
  "amenity" : "place_of_worship",
  "religion" : "christian",
  "latitude" : "42.0252181",
  "longitude" : "21.5652272"
}, {
  "id" : "410608638",
  "name" : "Сулдуречки Манастир",
  "religion" : "christian",
  "latitude" : "41.5810694",
  "longitude" : "22.4827019"
}, {
  "id" : "410925001",
  "name" : "Св. Јован Крстител",
  "building" : "church",
  "amenity" : "place_of_worship",
  "religion" : "christian",
  "latitude" : "41.9899539",
  "longitude" : "21.4746421"
}, {
  "id" : "412310913",
  "name" : "Св. Меркуриј",
  "amenity" : "place_of_worship",
  "religion" : "christian",
  "latitude" : "40.9522863",
  "longitude" : "21.3504051"
}, {
  "id" : "412310914",
  "name" : "Барешански Манастир",
  "name:en" : "Monastery of Bareshani",
  "religion" : "christian",
  "latitude" : "40.9524483",
  "longitude" : "21.3501935"
}, {
  "id" : "412315742",
  "name" : "Св. Димитриј",
  "amenity" : "place_of_worship",
  "religion" : "christian",
  "latitude" : "40.9531028",
  "longitude" : "21.3559622"
}, {
  "id" : "412395714",
  "name" : "Св. Никола",
  "building" : "church",
  "amenity" : "place_of_worship",
  "religion" : "christian",
  "latitude" : "40.9797665",
  "longitude" : "21.3555952"
}, {
  "id" : "412395715",
  "name" : "Бистрички Манастир",
  "religion" : "christian",
  "latitude" : "40.979811",
  "longitude" : "21.354975"
}, {
  "id" : "412643816",
  "name" : "Св. Никола",
  "name:en" : "St. Nicholas",
  "amenity" : "place_of_worship",
  "denomination" : "macedonian_orthodox",
  "religion" : "christian",
  "latitude" : "41.4076713",
  "longitude" : "21.3965792"
}, {
  "id" : "412800549",
  "name" : "Св. Георгиј",
  "name:en" : "St. George",
  "amenity" : "place_of_worship",
  "denomination" : "macedonian_orthodox",
  "religion" : "christian",
  "latitude" : "41.4018546",
  "longitude" : "21.4307261"
}, {
  "id" : "412941981",
  "name" : "Св. Богородица",
  "name:en" : "Holy Mother of God",
  "amenity" : "place_of_worship",
  "denomination" : "macedonian_orthodox",
  "religion" : "christian",
  "latitude" : "41.3836212",
  "longitude" : "21.4997455"
}, {
  "id" : "412979463",
  "name" : "Св. Троица",
  "name:en" : "Holy Trinity",
  "amenity" : "place_of_worship",
  "denomination" : "macedonian_orthodox",
  "religion" : "christian",
  "latitude" : "41.3415981",
  "longitude" : "21.4368762"
}, {
  "id" : "413913224",
  "name" : "Полчишки Манастир",
  "name:en" : "Monastery of Polchishte",
  "religion" : "christian",
  "latitude" : "41.1367304",
  "longitude" : "21.8046449"
}, {
  "id" : "413914395",
  "name" : "Св. Пантелејмон",
  "amenity" : "place_of_worship",
  "religion" : "christian",
  "latitude" : "41.1364492",
  "longitude" : "21.8069048"
}, {
  "id" : "414261893",
  "name" : "Трескавец",
  "name:en" : "Treskavec",
  "historic" : "archaeological_site",
  "latitude" : "41.4040148",
  "longitude" : "21.5385808"
}, {
  "id" : "416992718",
  "name" : "Св. Димитриј",
  "amenity" : "place_of_worship",
  "religion" : "christian",
  "latitude" : "41.734396",
  "longitude" : "22.1810904"
}, {
  "id" : "416992727",
  "name" : "Св. Богородица",
  "amenity" : "place_of_worship",
  "religion" : "christian",
  "latitude" : "41.7361386",
  "longitude" : "22.1818877"
}, {
  "id" : "416992742",
  "name" : "Св. Спас",
  "amenity" : "place_of_worship",
  "religion" : "christian",
  "latitude" : "41.7348212",
  "longitude" : "22.1847779"
}, {
  "id" : "417361056",
  "name" : "Меморијален комплекс на паднатите борци на Револуцијата",
  "historic" : "memorial",
  "memorial" : "war_memorial",
  "latitude" : "41.7387282",
  "longitude" : "22.1877844"
}, {
  "id" : "417361065",
  "name" : "Исар",
  "historic" : "ruins",
  "latitude" : "41.7374959",
  "longitude" : "22.1868037"
}, {
  "id" : "424490169",
  "name" : "Скупи",
  "name:en" : "Scupi",
  "historic" : "archaeological_site",
  "latitude" : "42.020606",
  "longitude" : "21.3883384"
}, {
  "id" : "425934461",
  "name" : "Св. Недела",
  "amenity" : "place_of_worship",
  "denomination" : "macedonian_orthodox",
  "religion" : "christian",
  "latitude" : "41.7029956",
  "longitude" : "21.7879089"
}, {
  "id" : "425934479",
  "name" : "Манастир „Свети Димитрија“",
  "amenity" : "place_of_worship",
  "latitude" : "41.7024974",
  "longitude" : "21.7912319"
}, {
  "id" : "428709970",
  "name" : "Св. Константин и Елена",
  "amenity" : "place_of_worship",
  "religion" : "christian",
  "latitude" : "41.4162429",
  "longitude" : "22.7545721"
}, {
  "id" : "428710862",
  "name" : "Протестантска црква",
  "amenity" : "place_of_worship",
  "religion" : "christian",
  "latitude" : "41.4165598",
  "longitude" : "22.7503572"
}, {
  "id" : "428977431",
  "name" : "Света Петка",
  "amenity" : "place_of_worship",
  "religion" : "christian",
  "latitude" : "41.6307512",
  "longitude" : "21.489222"
}, {
  "id" : "429475632",
  "name" : "Св. Димитрија",
  "building" : "church",
  "amenity" : "place_of_worship",
  "religion" : "christian",
  "latitude" : "41.7932942",
  "longitude" : "20.9156915"
}, {
  "id" : "431359728",
  "name" : "Рождество на Пресвета Богородица",
  "name:en" : "Nativity of the Holy Mother of God",
  "amenity" : "place_of_worship",
  "denomination" : "macedonian_orthodox",
  "religion" : "christian",
  "latitude" : "41.2591235",
  "longitude" : "21.5686741"
}, {
  "id" : "431359730",
  "name" : "Св. Георгиј",
  "name:en" : "St. George",
  "tourism" : "attraction",
  "latitude" : "41.2598752",
  "longitude" : "21.5665078"
}, {
  "id" : "433012845",
  "name" : "Св. Димитриј Солунски",
  "name:en" : "St. Demetrius of Salonica",
  "amenity" : "place_of_worship",
  "religion" : "christian",
  "latitude" : "41.1412407",
  "longitude" : "21.4357067"
}, {
  "id" : "435145527",
  "name" : "Св. Атанасиј",
  "name:en" : "St. Athanasius",
  "amenity" : "place_of_worship",
  "religion" : "christian",
  "latitude" : "41.2743142",
  "longitude" : "21.3682258"
}, {
  "id" : "435146555",
  "name" : "Св. Георгиј",
  "name:en" : "St. George",
  "amenity" : "place_of_worship",
  "religion" : "christian",
  "latitude" : "41.2714183",
  "longitude" : "21.3902871"
}, {
  "id" : "435146558",
  "name" : "Пашинорувчански Манастир",
  "name:en" : "Monastery of Pashino Ruvci",
  "religion" : "christian",
  "latitude" : "41.271216",
  "longitude" : "21.3904671"
}, {
  "id" : "435932529",
  "name" : "Св. Петка",
  "name:en" : "St. Parascheva",
  "amenity" : "place_of_worship",
  "religion" : "christian",
  "latitude" : "42.2156133",
  "longitude" : "21.6992152"
}, {
  "id" : "439088377",
  "name" : "Св.Никола",
  "amenity" : "place_of_worship",
  "religion" : "christian",
  "latitude" : "41.7364711",
  "longitude" : "22.1887765"
}, {
  "id" : "439347125",
  "name" : "Музеј Штип",
  "tourism" : "museum",
  "latitude" : "41.736621",
  "longitude" : "22.1894327"
}, {
  "id" : "442439951",
  "name" : "Св. Георгиј",
  "name:en" : "St. George",
  "amenity" : "place_of_worship",
  "denomination" : "macedonian_orthodox",
  "religion" : "christian",
  "latitude" : "41.3406569",
  "longitude" : "21.6898689"
}, {
  "id" : "442440400",
  "name" : "Беловодички Манастир",
  "name:en" : "Monastery of Belovodica",
  "religion" : "christian",
  "latitude" : "41.3403588",
  "longitude" : "21.6893085"
}, {
  "id" : "442442835",
  "name" : "Св. Никола",
  "name:en" : "St. Nicholas",
  "amenity" : "place_of_worship",
  "denomination" : "macedonian_orthodox",
  "religion" : "christian",
  "latitude" : "41.3356073",
  "longitude" : "21.7045514"
}, {
  "id" : "442934201",
  "name" : "Мурат-пашина џамија",
  "name:en" : "Murat Pasha Mosque",
  "amenity" : "place_of_worship",
  "latitude" : "42.0008854",
  "longitude" : "21.4374271"
}, {
  "id" : "442988984",
  "name" : "Св. Никола",
  "name:en" : "St. Nicholas",
  "building" : "church",
  "amenity" : "place_of_worship",
  "religion" : "christian",
  "latitude" : "41.0514202",
  "longitude" : "21.3246067"
}, {
  "id" : "443063644",
  "name" : "Св. Арханѓел",
  "amenity" : "place_of_worship",
  "religion" : "christian",
  "latitude" : "41.7390026",
  "longitude" : "22.1881024"
}, {
  "id" : "443072144",
  "name" : "Безистен Штип",
  "tourism" : "museum",
  "latitude" : "41.7375614",
  "longitude" : "22.1924737"
}, {
  "id" : "444881587",
  "name" : "Кадан Ана Џамија",
  "amenity" : "place_of_worship",
  "latitude" : "41.7379228",
  "longitude" : "22.1978173"
}, {
  "id" : "445672540",
  "name" : "Бегов амам",
  "name:en" : "Bey's Hamam",
  "tourism" : "museum",
  "latitude" : "42.0061214",
  "longitude" : "20.967434"
}, {
  "id" : "445676243",
  "name" : "Арабати баба-теќе",
  "tourism" : "attraction",
  "latitude" : "42.0046563",
  "longitude" : "20.9572728"
}, {
  "id" : "445929014",
  "name" : "Св. Архангел Михаил",
  "amenity" : "place_of_worship",
  "religion" : "christian",
  "latitude" : "41.7381482",
  "longitude" : "22.1912421"
}, {
  "id" : "445947375",
  "name" : "Гоце Делчев",
  "historic" : "monument",
  "latitude" : "41.7363697",
  "longitude" : "22.1819881"
}, {
  "id" : "453012433",
  "name" : "Св. Атанасиј",
  "name:en" : "St. Athanasius",
  "amenity" : "place_of_worship",
  "religion" : "christian",
  "latitude" : "41.9816896",
  "longitude" : "21.0389549"
}, {
  "id" : "453012435",
  "name" : "Пресвета Богородица",
  "name:en" : "Holy Mother of God",
  "amenity" : "place_of_worship",
  "religion" : "christian",
  "latitude" : "41.980706",
  "longitude" : "21.0411556"
}, {
  "id" : "453048240",
  "name" : "св. Тројица",
  "name:en" : "Sv. Trojitca",
  "historic" : "monastery",
  "amenity" : "place_of_worship",
  "religion" : "christian",
  "latitude" : "42.1028052",
  "longitude" : "21.3784397"
}, {
  "id" : "453048243",
  "name" : "св. Тројица",
  "name:en" : "Sv. Trojitca",
  "religion" : "christian",
  "latitude" : "42.1028549",
  "longitude" : "21.3780749"
}, {
  "id" : "465292251",
  "name" : "Црква Свети Димитриј",
  "name:en" : "Chruch St. Dimitrij",
  "addr:city" : "Kriva Palanka",
  "amenity" : "place_of_worship",
  "religion" : "christian",
  "latitude" : "42.2022704",
  "longitude" : "22.3356681"
}, {
  "id" : "466723143",
  "name" : "Xhamia e Cairit",
  "amenity" : "place_of_worship",
  "latitude" : "42.0189873",
  "longitude" : "21.4453585"
}, {
  "id" : "467457983",
  "name" : "Xhamia e Uhudit",
  "amenity" : "place_of_worship",
  "latitude" : "42.0187056",
  "longitude" : "21.4384852"
}, {
  "id" : "467605857",
  "name" : "Хаџиќазимова џамија",
  "amenity" : "place_of_worship",
  "latitude" : "42.0037351",
  "longitude" : "21.445239"
}, {
  "id" : "474839770",
  "name" : "Кебир Мехмед Челеби џамија",
  "amenity" : "place_of_worship",
  "latitude" : "41.9992222",
  "longitude" : "21.4452168"
}, {
  "id" : "474869860",
  "name" : "Турска Чаршија",
  "name:en" : "Turkish Bazaar",
  "tourism" : "attraction",
  "latitude" : "42.0014097",
  "longitude" : "21.4373979"
}, {
  "id" : "474873958",
  "name" : "Скопско кале",
  "name:en" : "Skopje Fortress",
  "opening_hours" : "07:00-19:00",
  "historic" : "castle",
  "tourism" : "attraction",
  "latitude" : "42.0018674",
  "longitude" : "21.4326108"
}, {
  "id" : "476192899",
  "name" : "Мост на уметноста",
  "name:en" : "Bridge of Artists",
  "tourism" : "attraction",
  "latitude" : "41.9960433",
  "longitude" : "21.4360342"
}, {
  "id" : "476714056",
  "name" : "Св. Богородица",
  "amenity" : "place_of_worship",
  "religion" : "christian",
  "latitude" : "42.0120452",
  "longitude" : "20.9599456"
}, {
  "id" : "476718499",
  "name" : "Нова Џамија",
  "name:en" : "New Mosque",
  "amenity" : "place_of_worship",
  "latitude" : "42.0002524",
  "longitude" : "20.958127"
}, {
  "id" : "476718503",
  "name" : "Св. Недела",
  "amenity" : "place_of_worship",
  "religion" : "christian",
  "latitude" : "42.0126248",
  "longitude" : "20.9620177"
}, {
  "id" : "476718504",
  "name" : "Св. Никола",
  "amenity" : "place_of_worship",
  "religion" : "christian",
  "latitude" : "42.0126379",
  "longitude" : "20.9626181"
}, {
  "id" : "477021071",
  "name" : "Штакле",
  "name:en" : "Castle Stakle",
  "opening_hours" : "24/7",
  "historic" : "castle",
  "latitude" : "42.0055956",
  "longitude" : "21.4475562"
}, {
  "id" : "479137723",
  "name" : "Xhamia e Vogël",
  "amenity" : "place_of_worship",
  "latitude" : "42.0085197",
  "longitude" : "21.4387758"
}, {
  "id" : "479804854",
  "name" : "Арабати баба-теќе",
  "addr:city" : "Tetovo",
  "amenity" : "place_of_worship",
  "latitude" : "42.0039593",
  "longitude" : "20.9570146"
}, {
  "id" : "481086680",
  "name" : "Св. Благовештение",
  "name:en" : "Holy Annunciation",
  "addr:city" : "Прилеп",
  "amenity" : "place_of_worship",
  "denomination" : "macedonian_orthodox",
  "religion" : "christian",
  "latitude" : "41.3433247",
  "longitude" : "21.557818"
}, {
  "id" : "481402867",
  "name" : "Sveto Prepolovenie Rusa Sreda",
  "name:en" : "Sveto Prepolovenie Rusa Sreda",
  "amenity" : "place_of_worship",
  "religion" : "christian",
  "latitude" : "41.9168502",
  "longitude" : "21.4954059"
}, {
  "id" : "487171786",
  "name" : "Св. Никола",
  "name:en" : "St. Nicholas",
  "amenity" : "place_of_worship",
  "denomination" : "macedonian_orthodox",
  "religion" : "christian",
  "latitude" : "41.3781754",
  "longitude" : "21.8058471"
}, {
  "id" : "488242717",
  "name" : "св. Софија аеродром",
  "amenity" : "place_of_worship",
  "religion" : "christian",
  "latitude" : "41.9809066",
  "longitude" : "21.4735645"
}, {
  "id" : "488874782",
  "name" : "Црква Свети Никола - Аеродром",
  "name:en" : "Saint Nicholas",
  "addr:city" : "Cкoпje",
  "amenity" : "place_of_worship",
  "religion" : "christian",
  "latitude" : "41.9837758",
  "longitude" : "21.471558"
}, {
  "id" : "489901374",
  "name" : "Рождество на Пресвета Богородица",
  "name:en" : "Nativity of the Virgin Mary",
  "amenity" : "place_of_worship",
  "denomination" : "macedonian_orthodox",
  "religion" : "christian",
  "latitude" : "41.3331889",
  "longitude" : "21.4617918"
}, {
  "id" : "495221294",
  "name" : "Xhamia e Re",
  "amenity" : "place_of_worship",
  "latitude" : "42.1266949",
  "longitude" : "21.7090092"
}, {
  "id" : "496314248",
  "name" : "Св. Георгиј",
  "name:en" : "St. George",
  "amenity" : "place_of_worship",
  "denomination" : "macedonian_orthodox",
  "religion" : "christian",
  "latitude" : "41.428778",
  "longitude" : "21.6201158"
}, {
  "id" : "496314253",
  "name" : "Присадски Манастир",
  "name:en" : "Monastery of Prisad",
  "religion" : "christian",
  "latitude" : "41.4294572",
  "longitude" : "21.6197511"
}, {
  "id" : "502848605",
  "name" : "Голема Базилика",
  "name:en" : "Great Basilica",
  "historic" : "ruins",
  "latitude" : "41.0110152",
  "longitude" : "21.3420808"
}, {
  "id" : "512243737",
  "name" : "Св. Никола",
  "amenity" : "place_of_worship",
  "religion" : "christian",
  "latitude" : "41.284169",
  "longitude" : "21.3384909"
}, {
  "id" : "513644247",
  "name" : "Света Недела",
  "name:en" : "Holy Sunday",
  "historic" : "monastery",
  "latitude" : "41.9497147",
  "longitude" : "21.2914975"
}, {
  "id" : "514513452",
  "name" : "Билазора",
  "historic" : "archaeological_site",
  "latitude" : "41.8472031",
  "longitude" : "21.9129575"
}, {
  "id" : "517915859",
  "name" : "Пресвета Богородица Перивлепта",
  "name:en" : "Church of Holy Mother of God Perivleptos",
  "building" : "church",
  "amenity" : "place_of_worship",
  "religion" : "christian",
  "latitude" : "41.1142881",
  "longitude" : "20.795401"
}, {
  "id" : "533569466",
  "name" : "Евангелска Конгрешанска Црква",
  "building" : "church",
  "amenity" : "place_of_worship",
  "religion" : "christian",
  "latitude" : "41.9983971",
  "longitude" : "21.4148541"
}, {
  "id" : "547594794",
  "name" : "Новоапостолска црква",
  "building" : "church",
  "latitude" : "42.0036882",
  "longitude" : "21.3872555"
}, {
  "id" : "549607212",
  "name" : "Манастир Св. Илија",
  "name:en" : "St. Elias Monastery",
  "amenity" : "place_of_worship",
  "religion" : "christian",
  "latitude" : "41.9765636",
  "longitude" : "22.821134"
}, {
  "id" : "552666312",
  "name" : "Рождество на Пресвета Богородица",
  "name:en" : "Rozhdenstvo na Presveta Bogorodica",
  "building" : "church",
  "amenity" : "place_of_worship",
  "religion" : "christian",
  "latitude" : "41.4232793",
  "longitude" : "22.7649772"
}, {
  "id" : "553070358",
  "name" : "Колонада",
  "historic" : "monument",
  "latitude" : "41.9963096",
  "longitude" : "21.4359129"
}, {
  "id" : "554249801",
  "name" : "Св. Илија",
  "name:en" : "St. Eliyah",
  "amenity" : "place_of_worship",
  "denomination" : "macedonian_orthodox",
  "religion" : "christian",
  "latitude" : "41.2707376",
  "longitude" : "21.4439853"
}, {
  "id" : "555704741",
  "name" : "Успение на Пресвета Богородица",
  "name:en" : "Dormition of the Theotokos Church",
  "amenity" : "place_of_worship",
  "religion" : "christian",
  "latitude" : "41.9626297",
  "longitude" : "22.7731511"
}, {
  "id" : "556794420",
  "name" : "Св. Јован Крстител",
  "name:en" : "St. John the Baptist",
  "amenity" : "place_of_worship",
  "denomination" : "macedonian_orthodox",
  "religion" : "christian",
  "latitude" : "41.3664299",
  "longitude" : "21.5984546"
}, {
  "id" : "556794423",
  "name" : "Оревоечки манастир",
  "religion" : "christian",
  "latitude" : "41.3669251",
  "longitude" : "21.5982759"
}, {
  "id" : "561537018",
  "name" : "Св. Кузман и Дамјан",
  "name:en" : "Ss. Cosma and Damian",
  "amenity" : "place_of_worship",
  "denomination" : "macedonian_orthodox",
  "religion" : "christian",
  "latitude" : "41.3703657",
  "longitude" : "21.6531133"
}, {
  "id" : "577834275",
  "name" : "Свети Ѓорги",
  "building" : "church",
  "latitude" : "41.7595361",
  "longitude" : "22.4170446"
}, {
  "id" : "578228529",
  "name" : "Св. Павле",
  "name:en" : "St. Oaul",
  "amenity" : "place_of_worship",
  "religion" : "christian",
  "latitude" : "41.8845362",
  "longitude" : "22.5049966"
}, {
  "id" : "579710993",
  "name" : "Парк на поезијата",
  "name:en" : "Poetry park",
  "tourism" : "attraction",
  "latitude" : "41.1756325",
  "longitude" : "20.6762178"
}, {
  "id" : "579719151",
  "name" : "Св. Никола",
  "name:en" : "St. Nicholas",
  "amenity" : "place_of_worship",
  "religion" : "christian",
  "latitude" : "41.175254",
  "longitude" : "20.6775515"
}, {
  "id" : "581914094",
  "name" : "Св. Димитриј",
  "amenity" : "place_of_worship",
  "religion" : "christian",
  "latitude" : "41.1768618",
  "longitude" : "20.6717337"
}, {
  "id" : "581996078",
  "name" : "Св. Георгиј",
  "name:en" : "St. George",
  "addr:city" : "Струга",
  "building" : "church",
  "amenity" : "place_of_worship",
  "religion" : "christian",
  "latitude" : "41.1772891",
  "longitude" : "20.6742226"
}, {
  "id" : "585471780",
  "name" : "Св. Никола",
  "building" : "church",
  "amenity" : "place_of_worship",
  "religion" : "christian",
  "latitude" : "41.0460429",
  "longitude" : "21.0064644"
}, {
  "id" : "603405553",
  "name" : "Roman & Ottoman Bathouse",
  "historic" : "archaeological_site",
  "latitude" : "41.3829596",
  "longitude" : "22.7533399"
}, {
  "id" : "603605133",
  "name" : "Sv.Petka",
  "building" : "church",
  "latitude" : "41.7774923",
  "longitude" : "22.8624611"
}, {
  "id" : "617132672",
  "name" : "Манастир Св. Недела",
  "building" : "church",
  "amenity" : "place_of_worship",
  "religion" : "christian",
  "latitude" : "41.2178305",
  "longitude" : "20.6941689"
}, {
  "id" : "620649950",
  "name" : "Св. Архангел Миахил",
  "name:en" : "St. Archangel Michael",
  "amenity" : "place_of_worship",
  "denomination" : "macedonian_orthodox",
  "religion" : "christian",
  "latitude" : "41.2919637",
  "longitude" : "21.625248"
}, {
  "id" : "623448985",
  "name" : "Ајдар-пашина џамија",
  "amenity" : "place_of_worship",
  "latitude" : "41.1178805",
  "longitude" : "20.7921004"
}, {
  "id" : "625505115",
  "name" : "Baptisterium",
  "historic" : "building",
  "latitude" : "41.1122293",
  "longitude" : "20.7913081"
}, {
  "id" : "625505134",
  "name" : "Света Богородица Пандонос",
  "name:en" : "Sveta Bogorodica Pandonos",
  "building" : "church",
  "amenity" : "place_of_worship",
  "religion" : "christian",
  "latitude" : "41.1151731",
  "longitude" : "20.7938418"
}, {
  "id" : "626882189",
  "name" : "Црква Свети 40 Севастиски Маченици",
  "amenity" : "place_of_worship",
  "religion" : "christian",
  "latitude" : "41.1130973",
  "longitude" : "20.7941338"
}, {
  "id" : "626884064",
  "name" : "Св. Никола Чудотворец",
  "name:en" : "Saint Nicholas the Wonderworker",
  "amenity" : "place_of_worship",
  "religion" : "christian",
  "latitude" : "41.1130472",
  "longitude" : "20.7957989"
}, {
  "id" : "626885547",
  "name" : "Св. Богородица Каменска",
  "building" : "church",
  "amenity" : "place_of_worship",
  "religion" : "christian",
  "latitude" : "41.1163477",
  "longitude" : "20.7991757"
}, {
  "id" : "664905985",
  "name" : "Св. Петка",
  "name:en" : "St. Parascheva",
  "amenity" : "place_of_worship",
  "denomination" : "macedonian_orthodox",
  "religion" : "christian",
  "latitude" : "41.3092751",
  "longitude" : "21.5149422"
}, {
  "id" : "669910506",
  "name" : "Св. Пантелејмон",
  "amenity" : "place_of_worship",
  "denomination" : "macedonian_orthodox",
  "religion" : "christian",
  "latitude" : "41.7066918",
  "longitude" : "21.7817735"
}, {
  "id" : "670179174",
  "name" : "Св. Кирил и Методиј",
  "amenity" : "place_of_worship",
  "denomination" : "macedonian_orthodox",
  "religion" : "christian",
  "latitude" : "41.7174161",
  "longitude" : "21.7741163"
}, {
  "id" : "671131831",
  "name" : "Црна Џамија",
  "name:en" : "Black Mosque",
  "amenity" : "place_of_worship",
  "latitude" : "41.710543",
  "longitude" : "21.7861191"
}, {
  "id" : "671215482",
  "name" : "Успение на Пресвета Богородица",
  "amenity" : "place_of_worship",
  "denomination" : "macedonian_orthodox",
  "religion" : "christian",
  "latitude" : "41.711557",
  "longitude" : "21.7886293"
}, {
  "id" : "671991322",
  "name" : "Бачило Клепало",
  "tourism" : "attraction",
  "latitude" : "41.65346",
  "longitude" : "22.9752599"
}, {
  "id" : "677972632",
  "name" : "Св.Илија",
  "amenity" : "place_of_worship",
  "religion" : "christian",
  "latitude" : "41.735801",
  "longitude" : "22.1955583"
}, {
  "id" : "677972633",
  "name" : "Џамија Хусамедин Паша",
  "amenity" : "place_of_worship",
  "latitude" : "41.7357202",
  "longitude" : "22.1956142"
}, {
  "id" : "677981810",
  "name" : "Geoglif Sv. Nikole",
  "historic" : "archaeological_site",
  "latitude" : "41.8300273",
  "longitude" : "21.9563597"
}, {
  "id" : "679215630",
  "name" : "Александар Македонски",
  "historic" : "monument",
  "latitude" : "41.7372303",
  "longitude" : "22.1940832"
}, {
  "id" : "685820502",
  "name" : "St. Dimitri's Church",
  "building" : "church",
  "latitude" : "40.9487182",
  "longitude" : "21.5979572"
}, {
  "id" : "689827316",
  "name" : "Црковен двор на „Пресв. Богородица“",
  "religion" : "christian",
  "latitude" : "41.9769949",
  "longitude" : "21.4086185"
}, {
  "id" : "692090840",
  "name" : "Св. Никола",
  "name:en" : "Saint Nicholas Church",
  "amenity" : "place_of_worship",
  "religion" : "christian",
  "latitude" : "40.9142274",
  "longitude" : "20.9878885"
}, {
  "id" : "692208999",
  "name" : "Св. Кирил и Методиј",
  "name:en" : "Saint Cyril and Methodius Church",
  "building" : "church",
  "latitude" : "40.9390241",
  "longitude" : "20.9113566"
}, {
  "id" : "692210080",
  "name" : "Св. Кирил и Методиј",
  "name:en" : "Saint Cyril and Methodius Church",
  "religion" : "christian",
  "latitude" : "40.9389563",
  "longitude" : "20.9116892"
}, {
  "id" : "692925887",
  "name" : "Света Великомаченичка Недела",
  "building" : "church",
  "amenity" : "place_of_worship",
  "religion" : "christian",
  "latitude" : "41.0623366",
  "longitude" : "20.8017484"
}, {
  "id" : "698993277",
  "name" : "Bilazora - Water Reservoir",
  "historic" : "archaeological_site",
  "latitude" : "41.8497574",
  "longitude" : "21.909884"
}, {
  "id" : "704079412",
  "name" : "Велешки Гемиџија",
  "historic" : "monument",
  "latitude" : "41.7161653",
  "longitude" : "21.7833978"
}, {
  "id" : "707017723",
  "name" : "En-Nur Mosque",
  "amenity" : "place_of_worship",
  "latitude" : "41.9735125",
  "longitude" : "21.2387012"
}, {
  "id" : "710683841",
  "name" : "SV Petka",
  "amenity" : "place_of_worship",
  "religion" : "christian",
  "latitude" : "41.9211974",
  "longitude" : "21.7619473"
}, {
  "id" : "715124995",
  "name" : "Манастир Св. Петка с. Бродец",
  "amenity" : "place_of_worship",
  "religion" : "christian",
  "latitude" : "41.7638744",
  "longitude" : "20.6722663"
}, {
  "id" : "715175611",
  "name" : "Храм Св. Троица",
  "name:en" : "Holy Trinity Church",
  "amenity" : "place_of_worship",
  "religion" : "christian",
  "latitude" : "41.6748688",
  "longitude" : "21.3118854"
}, {
  "id" : "722360856",
  "name" : "Св. Ѓорѓи",
  "religion" : "christian",
  "latitude" : "41.5365226",
  "longitude" : "20.6935519"
}, {
  "id" : "722996635",
  "name" : "Кешанли џамија",
  "amenity" : "place_of_worship",
  "latitude" : "41.1200128",
  "longitude" : "20.811041"
}, {
  "id" : "762181802",
  "name" : "Градска плажа",
  "addr:city" : "Стар Дојран",
  "opening_hours" : "08:00-18:00",
  "tourism" : "attraction",
  "latitude" : "41.1876479",
  "longitude" : "22.7224924"
}, {
  "id" : "770882635",
  "name" : "Sv. Bogorodica",
  "amenity" : "place_of_worship",
  "religion" : "christian",
  "latitude" : "41.9139555",
  "longitude" : "22.0132448"
}, {
  "id" : "781153480",
  "name" : "Св. Анастасие",
  "building" : "church",
  "latitude" : "41.1837145",
  "longitude" : "22.4791953"
}, {
  "id" : "800147950",
  "name" : "Св. Никола",
  "name:en" : "St. Nicholas",
  "amenity" : "place_of_worship",
  "denomination" : "macedonian_orthodox",
  "religion" : "christian",
  "latitude" : "41.2902299",
  "longitude" : "21.5966698"
}, {
  "id" : "800541179",
  "name" : "Св. Георгиј",
  "amenity" : "place_of_worship",
  "religion" : "christian",
  "latitude" : "41.2745796",
  "longitude" : "21.292007"
}, {
  "id" : "800541180",
  "name" : "Бучински Манастир",
  "name:en" : "Monastery of Buchin",
  "religion" : "christian",
  "latitude" : "41.2739482",
  "longitude" : "21.2918309"
}, {
  "id" : "801945534",
  "name" : "Св. Архангел Михаил",
  "amenity" : "place_of_worship",
  "religion" : "christian",
  "latitude" : "41.5468492",
  "longitude" : "21.2500015"
}, {
  "id" : "802140928",
  "name" : "Св. Илија",
  "amenity" : "place_of_worship",
  "denomination" : "macedonian_orthodox",
  "religion" : "christian",
  "latitude" : "41.2484212",
  "longitude" : "21.6077266"
}, {
  "id" : "802140932",
  "name" : "Писокалски Манастир",
  "name:en" : "Monastery of Pisokal",
  "religion" : "christian",
  "latitude" : "41.2495561",
  "longitude" : "21.6079074"
}, {
  "id" : "802269646",
  "name" : "Св. Недела",
  "name:en" : "St. Domenica",
  "amenity" : "place_of_worship",
  "denomination" : "macedonian_orthodox",
  "religion" : "christian",
  "latitude" : "41.1977353",
  "longitude" : "21.6701079"
}, {
  "id" : "802269647",
  "name" : "Крушевички Манастир",
  "name:en" : "Monastery of Krushevica",
  "religion" : "christian",
  "latitude" : "41.1979307",
  "longitude" : "21.6701298"
}, {
  "id" : "802697348",
  "name" : "Св. Петар и Павле",
  "name:en" : "St. Peter and Paul",
  "amenity" : "place_of_worship",
  "denomination" : "macedonian_orthodox",
  "religion" : "christian",
  "latitude" : "41.2474392",
  "longitude" : "21.6693924"
}, {
  "id" : "802697353",
  "name" : "Дуњски Манастир I",
  "name:en" : "Monastery of Dunje I",
  "religion" : "christian",
  "latitude" : "41.2471705",
  "longitude" : "21.6683015"
}, {
  "id" : "803098569",
  "name" : "Св. Георгиј",
  "name:en" : "Church St. George",
  "amenity" : "place_of_worship",
  "denomination" : "macedonian_orthodox",
  "religion" : "christian",
  "latitude" : "41.2201693",
  "longitude" : "21.6861354"
}, {
  "id" : "803098570",
  "name" : "Дуњски Манастир II",
  "name:en" : "Monastery of Dunje II",
  "religion" : "christian",
  "latitude" : "41.2206561",
  "longitude" : "21.6863508"
}, {
  "id" : "804717203",
  "name" : "Св. Преображение",
  "amenity" : "place_of_worship",
  "religion" : "christian",
  "latitude" : "41.4082296",
  "longitude" : "21.2209738"
}, {
  "id" : "804719910",
  "name" : "Тошев Манастир",
  "name:en" : "Toshe's Monastery",
  "denomination" : "macedonian_orthodox",
  "religion" : "christian",
  "latitude" : "41.4069516",
  "longitude" : "21.2204467"
}, {
  "id" : "804760176",
  "name" : "Св. Илија",
  "amenity" : "place_of_worship",
  "religion" : "christian",
  "latitude" : "41.3114056",
  "longitude" : "21.2693602"
}, {
  "id" : "804828232",
  "name" : "Св. Георгиј",
  "name:en" : "St. George",
  "amenity" : "place_of_worship",
  "religion" : "christian",
  "latitude" : "41.3288467",
  "longitude" : "21.2353038"
}, {
  "id" : "805969118",
  "name" : "Св. Никола",
  "amenity" : "place_of_worship",
  "denomination" : "macedonian_orthodox",
  "religion" : "christian",
  "latitude" : "41.2962236",
  "longitude" : "21.4874824"
}, {
  "id" : "805969120",
  "name" : "Беровчански Манастир",
  "name:en" : "Monastery of Berovci",
  "religion" : "christian",
  "latitude" : "41.2963091",
  "longitude" : "21.48806"
}, {
  "id" : "807724824",
  "name" : "Црквиште",
  "historic" : "archaeological_site",
  "latitude" : "42.1566153",
  "longitude" : "21.1848235"
}, {
  "id" : "808198802",
  "name" : "Загорански Манастир",
  "name:en" : "Monastery of Zagorani",
  "religion" : "christian",
  "latitude" : "41.2600128",
  "longitude" : "21.4243832"
}, {
  "id" : "808202710",
  "name" : "Ленишки Манастир",
  "name:en" : "Monastery of Lenishte",
  "religion" : "christian",
  "latitude" : "41.3579928",
  "longitude" : "21.62686"
}, {
  "id" : "808424072",
  "name" : "Св. Недела",
  "name:en" : "St. Sunday",
  "amenity" : "place_of_worship",
  "religion" : "christian",
  "latitude" : "41.4841843",
  "longitude" : "20.9233197"
}, {
  "id" : "808916278",
  "name" : "Масакр кај Карпалак",
  "name:en" : "Karpalak massacre",
  "historic" : "battlefield",
  "latitude" : "41.9765488",
  "longitude" : "21.1658829"
}, {
  "id" : "810265144",
  "name" : "Св. Петка",
  "name:en" : "St. Parascheva",
  "amenity" : "place_of_worship",
  "denomination" : "macedonian_orthodox",
  "religion" : "christian",
  "latitude" : "41.5512138",
  "longitude" : "21.4402185"
}, {
  "id" : "810284122",
  "name" : "Св. Атанасиј Велики",
  "name:en" : "St. Athanasius the Great",
  "amenity" : "place_of_worship",
  "denomination" : "macedonian_orthodox",
  "religion" : "christian",
  "latitude" : "41.4732835",
  "longitude" : "21.5445277"
}, {
  "id" : "813145396",
  "name" : "Небреговски Манастир",
  "name:en" : "Monastery of Nebregovo",
  "denomination" : "macedonian_orthodox",
  "religion" : "christian",
  "latitude" : "41.4600754",
  "longitude" : "21.5716345"
}, {
  "id" : "815079621",
  "name" : "Св. Спас",
  "name:en" : "Holy Salvation",
  "amenity" : "place_of_worship",
  "denomination" : "macedonian_orthodox",
  "religion" : "christian",
  "latitude" : "41.3035512",
  "longitude" : "21.56742"
}, {
  "id" : "816263407",
  "name" : "Св. Атанасиј",
  "name:en" : "St. Athanasius",
  "amenity" : "place_of_worship",
  "denomination" : "macedonian_orthodox",
  "religion" : "christian",
  "latitude" : "41.3623637",
  "longitude" : "21.6194965"
}, {
  "id" : "816588422",
  "name" : "Св. Преображение",
  "name:en" : "Holy Transfiguration",
  "addr:city" : "Прилеп",
  "phone" : "+38948413055",
  "amenity" : "place_of_worship",
  "denomination" : "macedonian_orthodox",
  "religion" : "christian",
  "latitude" : "41.3437815",
  "longitude" : "21.5567708"
}, {
  "id" : "816604528",
  "name" : "Музеј на икони",
  "museum" : "art",
  "tourism" : "gallery",
  "latitude" : "41.344021",
  "longitude" : "21.5588366"
}, {
  "id" : "816779407",
  "name" : "Св. Троица",
  "name:en" : "Holy Trinity",
  "amenity" : "place_of_worship",
  "religion" : "christian",
  "latitude" : "41.5180617",
  "longitude" : "21.9452729"
}, {
  "id" : "818900504",
  "name" : "Манастир Свети Ѓорѓи - Кнежино",
  "addr:city" : "Кнежино",
  "amenity" : "place_of_worship",
  "denomination" : "macedonian_orthodox",
  "religion" : "christian",
  "latitude" : "41.5163053",
  "longitude" : "20.9213457"
}, {
  "id" : "818902903",
  "name" : "Манастир Свети Ѓорѓи - Кнежино",
  "denomination" : "macedonian_orthodox",
  "religion" : "christian",
  "latitude" : "41.5155595",
  "longitude" : "20.9218714"
}, {
  "id" : "818907913",
  "name" : "Свети Димитрија",
  "amenity" : "place_of_worship",
  "religion" : "christian",
  "latitude" : "41.5212795",
  "longitude" : "20.9165336"
}, {
  "id" : "818911597",
  "name" : "Св. Архангел Михаил",
  "amenity" : "place_of_worship",
  "denomination" : "macedonian_orthodox",
  "religion" : "christian",
  "latitude" : "41.4827921",
  "longitude" : "20.8673838"
}, {
  "id" : "820126629",
  "name" : "Св. Никола",
  "name:en" : "St. Nicholas",
  "amenity" : "place_of_worship",
  "religion" : "christian",
  "latitude" : "41.2978732",
  "longitude" : "21.0722187"
}, {
  "id" : "820259296",
  "name" : "Св. Петка",
  "name:en" : "St. Parascheva",
  "addr:city" : "Прилеп",
  "amenity" : "place_of_worship",
  "denomination" : "macedonian_orthodox",
  "religion" : "christian",
  "latitude" : "41.3482047",
  "longitude" : "21.5382982"
}, {
  "id" : "821320763",
  "name" : "Св. Атанасиј",
  "name:en" : "St. Athanasius",
  "amenity" : "place_of_worship",
  "religion" : "christian",
  "latitude" : "41.2828569",
  "longitude" : "21.0464002"
}, {
  "id" : "821330536",
  "name" : "Рождество на Пресвета Богородица",
  "name:en" : "Nativity of the Virgin Mary",
  "amenity" : "place_of_worship",
  "religion" : "christian",
  "latitude" : "41.2509491",
  "longitude" : "21.2262288"
}, {
  "id" : "821781059",
  "name" : "Св. Никола",
  "name:en" : "St. Nicholas",
  "amenity" : "place_of_worship",
  "religion" : "christian",
  "latitude" : "41.2446025",
  "longitude" : "21.1964055"
}, {
  "id" : "821781063",
  "name" : "Гориче",
  "name:en" : "Goriche",
  "historic" : "archaeological_site",
  "latitude" : "41.238278",
  "longitude" : "21.2004225"
}, {
  "id" : "824662518",
  "name" : "Св. Богородица - Пречиста Кичевска",
  "amenity" : "place_of_worship",
  "religion" : "christian",
  "latitude" : "41.4592577",
  "longitude" : "20.9352717"
}, {
  "id" : "825419100",
  "name" : "Св. Георгиј",
  "name:en" : "St. George",
  "amenity" : "place_of_worship",
  "religion" : "christian",
  "latitude" : "41.3404832",
  "longitude" : "21.126402"
}, {
  "id" : "827813532",
  "name" : "Св. Константин и Св. Елена",
  "name:en" : "St. Constantine and St. Elena",
  "amenity" : "place_of_worship",
  "religion" : "christian",
  "latitude" : "41.2348788",
  "longitude" : "21.2509014"
}, {
  "id" : "832499572",
  "name" : "Свети Архангел Михаил",
  "name:en" : "Saint Archangel Michael",
  "amenity" : "place_of_worship",
  "denomination" : "macedonian_orthodox",
  "religion" : "christian",
  "latitude" : "40.9743152",
  "longitude" : "21.0581285"
}, {
  "id" : "834714769",
  "name" : "Gorno Orizari Mosque",
  "amenity" : "place_of_worship",
  "latitude" : "41.6858958",
  "longitude" : "21.7330478"
}, {
  "id" : "834714770",
  "name" : "Laka Mosque",
  "amenity" : "place_of_worship",
  "latitude" : "41.9976385",
  "longitude" : "21.3662793"
}, {
  "id" : "834714772",
  "name" : "Taftalidzhe Mosque",
  "amenity" : "place_of_worship",
  "latitude" : "42.0030937",
  "longitude" : "21.3833246"
}, {
  "id" : "834714781",
  "name" : "Halit Efendi Mosque",
  "amenity" : "place_of_worship",
  "latitude" : "42.175142",
  "longitude" : "21.6267867"
}, {
  "id" : "834714782",
  "name" : "Muzeu \"Dëshmorët e kombit\"",
  "museum" : "history",
  "tourism" : "museum",
  "latitude" : "42.1794755",
  "longitude" : "21.6202074"
}, {
  "id" : "837627775",
  "name" : "Св. Јован",
  "name:en" : "St. John",
  "amenity" : "place_of_worship",
  "religion" : "christian",
  "latitude" : "41.2263101",
  "longitude" : "21.1516908"
}, {
  "id" : "837627786",
  "name" : "Балаклија",
  "amenity" : "place_of_worship",
  "religion" : "christian",
  "latitude" : "41.2384573",
  "longitude" : "21.1505383"
}, {
  "id" : "837629389",
  "name" : "Св. Никола",
  "name:en" : "St. Nicholas",
  "amenity" : "place_of_worship",
  "religion" : "christian",
  "latitude" : "41.2846407",
  "longitude" : "21.0919176"
}, {
  "id" : "837634197",
  "name" : "Св. Петар",
  "name:en" : "St Peter",
  "amenity" : "place_of_worship",
  "religion" : "christian",
  "latitude" : "41.170636",
  "longitude" : "21.1062438"
}, {
  "id" : "837636511",
  "name" : "Св. Атанасиј",
  "name:en" : "St. Atanasius",
  "amenity" : "place_of_worship",
  "religion" : "christian",
  "latitude" : "41.3137744",
  "longitude" : "21.1466847"
}, {
  "id" : "837638201",
  "name" : "Успение на Пресвета Богородица",
  "amenity" : "place_of_worship",
  "religion" : "christian",
  "latitude" : "41.2066003",
  "longitude" : "21.2451722"
}, {
  "id" : "838638808",
  "name" : "Спомен плоча - Ѓурѓејца",
  "historic" : "memorial",
  "memorial" : "war_memorial",
  "latitude" : "41.4531708",
  "longitude" : "20.9661064"
}, {
  "id" : "839150822",
  "name" : "Народен Музеј",
  "tourism" : "museum",
  "latitude" : "41.8649413",
  "longitude" : "21.9418167"
}, {
  "id" : "839150823",
  "name" : "Споменик на Народоослободителната борба",
  "historic" : "memorial",
  "latitude" : "41.8648032",
  "longitude" : "21.938984"
}, {
  "id" : "839150824",
  "name" : "Споменик „Александар Серафимов“",
  "historic" : "monument",
  "latitude" : "41.8647467",
  "longitude" : "21.9397788"
}, {
  "id" : "839361758",
  "name" : "Црква „Свети Никола“",
  "name:en" : "Church \"Saint Nicholas\"",
  "amenity" : "place_of_worship",
  "religion" : "christian",
  "latitude" : "41.8662753",
  "longitude" : "21.9422154"
}, {
  "id" : "839862837",
  "name" : "Света Лидија Македонска",
  "amenity" : "place_of_worship",
  "religion" : "christian",
  "latitude" : "41.8612413",
  "longitude" : "21.9392363"
}, {
  "id" : "840074824",
  "name" : "Св. Атанасиј",
  "building" : "church",
  "latitude" : "41.2041087",
  "longitude" : "22.5762835"
}, {
  "id" : "840074827",
  "name" : "Католичка Црква Св.Кирил и Методиј",
  "building" : "church",
  "latitude" : "41.2014527",
  "longitude" : "22.5776671"
}, {
  "id" : "844112184",
  "name" : "Sveta Bogorodica",
  "amenity" : "place_of_worship",
  "religion" : "christian",
  "latitude" : "41.5020203",
  "longitude" : "20.6833026"
}, {
  "id" : "846009790",
  "name" : "Св. Тодор",
  "amenity" : "place_of_worship",
  "religion" : "christian",
  "latitude" : "41.2213216",
  "longitude" : "21.3292307"
}, {
  "id" : "846009791",
  "name" : "Светотодорски Манастир",
  "religion" : "christian",
  "latitude" : "41.2207542",
  "longitude" : "21.3291873"
}, {
  "id" : "846935347",
  "name" : "Крклински Манастир",
  "name:en" : "Monastery of Krklino",
  "religion" : "christian",
  "latitude" : "41.0687269",
  "longitude" : "21.3165733"
}, {
  "id" : "846935349",
  "name" : "Св. Илија",
  "name:en" : "St. Eliyah",
  "amenity" : "place_of_worship",
  "denomination" : "macedonian_orthodox",
  "religion" : "christian",
  "latitude" : "41.0691223",
  "longitude" : "21.3172068"
}, {
  "id" : "848609722",
  "name" : "Св. Архангел Михаил",
  "name:en" : "St. Archangel Michael",
  "amenity" : "place_of_worship",
  "religion" : "christian",
  "latitude" : "41.148419",
  "longitude" : "21.3217724"
}, {
  "id" : "849430894",
  "name" : "Старо Село",
  "name:en" : "Staro Selo",
  "religion" : "christian",
  "latitude" : "40.961945",
  "longitude" : "21.3529929"
}, {
  "id" : "849430895",
  "name" : "Св. Ана",
  "name:en" : "St. Anna",
  "amenity" : "place_of_worship",
  "religion" : "christian",
  "latitude" : "40.9639332",
  "longitude" : "21.3494482"
}, {
  "id" : "849430896",
  "name" : "Св. Петка",
  "name:en" : "St. Parascheva",
  "amenity" : "place_of_worship",
  "religion" : "christian",
  "latitude" : "40.9634737",
  "longitude" : "21.3490314"
}, {
  "id" : "849430897",
  "name" : "Св. Атанасиј Велики",
  "name:en" : "St. Athanasius the Great",
  "amenity" : "place_of_worship",
  "religion" : "christian",
  "latitude" : "40.9631686",
  "longitude" : "21.3494834"
}, {
  "id" : "849430898",
  "name" : "Св. Илија",
  "name:en" : "St. Eliyah",
  "amenity" : "place_of_worship",
  "religion" : "christian",
  "latitude" : "40.96275",
  "longitude" : "21.3522355"
}, {
  "id" : "849440102",
  "name" : "Св. Георгиј",
  "name:en" : "St. George",
  "amenity" : "place_of_worship",
  "religion" : "christian",
  "latitude" : "40.9279095",
  "longitude" : "21.3400082"
}, {
  "id" : "849440103",
  "name" : "Велушински Манастир",
  "name:en" : "Monastery of Velushina",
  "religion" : "christian",
  "latitude" : "40.9276323",
  "longitude" : "21.3397507"
}, {
  "id" : "849458419",
  "name" : "Смолевски Манастир",
  "name:en" : "Monastery of Smolevo",
  "religion" : "christian",
  "latitude" : "41.0086305",
  "longitude" : "21.3182901"
},