[ {
  "id" : "2351791",
  "name" : "Плоштад Македонија",
  "name:en" : "Macedonia Square",
  "latitude" : "41.9957636",
  "longitude" : "21.430778",
  "tourism" : "attraction"
}, {
  "id" : "5360060",
  "name" : "Капан АН",
  "addr:city" : "Cкoпje",
  "addr:city:en" : "Skopje",
  "opening_hours" : "24/7",
  "latitude" : "42.0003007",
  "longitude" : "21.436573",
  "tourism" : "attraction"
}, {
  "id" : "5360062",
  "name" : "Куршумли-ан",
  "addr:city" : "Cкoпje",
  "addr:city:en" : "Skopje",
  "latitude" : "42.0032939",
  "longitude" : "21.4367598",
  "tourism" : "museum",
  "amenity" : "arts_centre"
}, {
  "id" : "5360062",
  "name" : "Куршумли-ан",
  "addr:city" : "Cкoпje",
  "addr:city:en" : "Skopje",
  "latitude" : "42.0032939",
  "longitude" : "21.4367598",
  "tourism" : "museum",
  "amenity" : "arts_centre"
}, {
  "id" : "6620184",
  "name" : "Маркови Кули",
  "name:en" : "Marko's Towers",
  "latitude" : "41.3610558",
  "longitude" : "21.5394503",
  "historic" : "castle",
  "tourism" : "attraction"
}, {
  "id" : "6620184",
  "name" : "Маркови Кули",
  "name:en" : "Marko's Towers",
  "latitude" : "41.3610558",
  "longitude" : "21.5394503",
  "historic" : "castle",
  "tourism" : "attraction"
}, {
  "id" : "6891030",
  "name" : "Јанче",
  "name:en" : "Janche",
  "latitude" : "41.5913279",
  "longitude" : "20.6197312",
  "tourism" : "attraction"
}, {
  "id" : "7681733",
  "name" : "Езеро Младост / Езеро Отовица / Велешко Езеро",
  "name:en" : "Lake of Mladost / Lake of Otovica / lake of Veles",
  "latitude" : "41.7759284",
  "longitude" : "21.7554836",
  "tourism" : "attraction"
}, {
  "id" : "8198779",
  "name" : "Дељадровечки манастир",
  "name:en" : "Monastery of Deljadrovci",
  "latitude" : "42.0224257",
  "longitude" : "21.6762",
  "religion" : "christian"
}, {
  "id" : "11198527",
  "name" : "Нови градски гробишта",
  "name:en" : "New city cemetery",
  "latitude" : "41.3704283",
  "longitude" : "21.5081955",
  "religion" : "christian"
}, {
  "id" : "11763985",
  "name" : "Стари гробишта",
  "name:en" : "Old cemetery",
  "latitude" : "41.3358211",
  "longitude" : "21.5588856",
  "religion" : "christian"
}, {
  "id" : "12327159",
  "name" : "Калиманци",
  "name:en" : "Kalimanci",
  "latitude" : "41.9894729",
  "longitude" : "22.5927669",
  "tourism" : "attraction"
}, {
  "id" : "15078753",
  "name" : "Куќата на Мантови",
  "name:en" : "House of Mantov",
  "latitude" : "41.3557382",
  "longitude" : "21.5404226",
  "historic" : "archaeological_site"
}, {
  "id" : "28214395",
  "name" : "Зоолошка градина скопје",
  "name:en" : "Skopje Zoo",
  "addr:city" : "Cкoпje",
  "addr:city:en" : "Skopje",
  "phone" : "+389 2 3220578",
  "opening_hours" : "09:00-18:00",
  "latitude" : "42.0059957",
  "longitude" : "21.4168368",
  "tourism" : "attraction"
}, {
  "id" : "32463336",
  "name" : "Скупи",
  "name:en" : "Scupi",
  "latitude" : "42.0150515",
  "longitude" : "21.3942891",
  "historic" : "archaeological_site",
  "tourism" : "attraction"
}, {
  "id" : "32463336",
  "name" : "Скупи",
  "name:en" : "Scupi",
  "latitude" : "42.0150515",
  "longitude" : "21.3942891",
  "historic" : "archaeological_site",
  "tourism" : "attraction"
}, {
  "id" : "32812963",
  "name" : "Музеј на Македонија",
  "name:en" : "Museum of Macedonia",
  "addr:city" : "Cкoпje",
  "addr:city:en" : "Skopje",
  "latitude" : "42.003194",
  "longitude" : "21.4363088",
  "tourism" : "museum"
}, {
  "id" : "32855069",
  "name" : "Црква Св. Димитриј",
  "name:en" : "Church of St. Demetrius",
  "addr:city" : "Cкoпje",
  "addr:city:en" : "Skopje",
  "latitude" : "41.9983981",
  "longitude" : "21.4342365",
  "building" : "church",
  "amenity" : "place_of_worship",
  "religion" : "christian"
}, {
  "id" : "32855069",
  "name" : "Црква Св. Димитриј",
  "name:en" : "Church of St. Demetrius",
  "addr:city" : "Cкoпje",
  "addr:city:en" : "Skopje",
  "latitude" : "41.9983981",
  "longitude" : "21.4342365",
  "building" : "church",
  "amenity" : "place_of_worship",
  "religion" : "christian"
}, {
  "id" : "32855069",
  "name" : "Црква Св. Димитриј",
  "name:en" : "Church of St. Demetrius",
  "addr:city" : "Cкoпje",
  "addr:city:en" : "Skopje",
  "latitude" : "41.9983981",
  "longitude" : "21.4342365",
  "building" : "church",
  "amenity" : "place_of_worship",
  "religion" : "christian"
}, {
  "id" : "32885596",
  "name" : "Француски гробишта",
  "name:en" : "French Cemetery",
  "latitude" : "42.0083586",
  "longitude" : "21.4304695",
  "historic" : "monument"
}, {
  "id" : "32887087",
  "name" : "Музеј на современата уметност",
  "name:en" : "Contemporary Art Museum of Macedonia",
  "addr:city" : "Cкoпje",
  "addr:city:en" : "Skopje",
  "phone" : "+389 2 3117734",
  "opening_hours" : "Tu-Sa 10:00-15:00; Su 09:00-13:00",
  "latitude" : "42.0043142",
  "longitude" : "21.4325172",
  "tourism" : "museum",
  "amenity" : "arts_centre"
}, {
  "id" : "32887087",
  "name" : "Музеј на современата уметност",
  "name:en" : "Contemporary Art Museum of Macedonia",
  "addr:city" : "Cкoпje",
  "addr:city:en" : "Skopje",
  "phone" : "+389 2 3117734",
  "opening_hours" : "Tu-Sa 10:00-15:00; Su 09:00-13:00",
  "latitude" : "42.0043142",
  "longitude" : "21.4325172",
  "tourism" : "museum",
  "amenity" : "arts_centre"
}, {
  "id" : "33096272",
  "name" : "Sv.Atanasij",
  "latitude" : "41.9776359",
  "longitude" : "21.0098228",
  "amenity" : "place_of_worship",
  "religion" : "christian"
}, {
  "id" : "33096272",
  "name" : "Sv.Atanasij",
  "latitude" : "41.9776359",
  "longitude" : "21.0098228",
  "amenity" : "place_of_worship",
  "religion" : "christian"
}, {
  "id" : "33100249",
  "name" : "Тетовско Кале",
  "name:en" : "Tetovo Fortress",
  "latitude" : "42.0191243",
  "longitude" : "20.9616713",
  "historic" : "castle"
}, {
  "id" : "34093752",
  "name" : "Самуилова тврдина",
  "name:en" : "Samuil's Fortress",
  "latitude" : "41.1159332",
  "longitude" : "20.7918338",
  "historic" : "castle",
  "tourism" : "attraction"
}, {
  "id" : "34093752",
  "name" : "Самуилова тврдина",
  "name:en" : "Samuil's Fortress",
  "latitude" : "41.1159332",
  "longitude" : "20.7918338",
  "historic" : "castle",
  "tourism" : "attraction"
}, {
  "id" : "34093853",
  "name" : "Антички театар",
  "name:en" : "Ancient Theatre",
  "latitude" : "41.114509",
  "longitude" : "20.7935224",
  "historic" : "archaeological_site",
  "tourism" : "attraction"
}, {
  "id" : "34093853",
  "name" : "Антички театар",
  "name:en" : "Ancient Theatre",
  "latitude" : "41.114509",
  "longitude" : "20.7935224",
  "historic" : "archaeological_site",
  "tourism" : "attraction"
}, {
  "id" : "34094279",
  "name" : "Плаошник",
  "name:en" : "Plaoshnik",
  "latitude" : "41.1137069",
  "longitude" : "20.7904973",
  "historic" : "archaeological_site",
  "tourism" : "attraction"
}, {
  "id" : "34094279",
  "name" : "Плаошник",
  "name:en" : "Plaoshnik",
  "latitude" : "41.1137069",
  "longitude" : "20.7904973",
  "historic" : "archaeological_site",
  "tourism" : "attraction"
}, {
  "id" : "34094478",
  "name" : "Св. Климент и Пантелејмон",
  "name:en" : "St. Clement and Panteleimon",
  "latitude" : "41.1125013",
  "longitude" : "20.7908012",
  "building" : "church",
  "amenity" : "place_of_worship",
  "tourism" : "attraction",
  "denomination" : "macedonian_orthodox",
  "religion" : "christian"
}, {
  "id" : "34094478",
  "name" : "Св. Климент и Пантелејмон",
  "name:en" : "St. Clement and Panteleimon",
  "latitude" : "41.1125013",
  "longitude" : "20.7908012",
  "building" : "church",
  "amenity" : "place_of_worship",
  "tourism" : "attraction",
  "denomination" : "macedonian_orthodox",
  "religion" : "christian"
}, {
  "id" : "34094478",
  "name" : "Св. Климент и Пантелејмон",
  "name:en" : "St. Clement and Panteleimon",
  "latitude" : "41.1125013",
  "longitude" : "20.7908012",
  "building" : "church",
  "amenity" : "place_of_worship",
  "tourism" : "attraction",
  "denomination" : "macedonian_orthodox",
  "religion" : "christian"
}, {
  "id" : "34094478",
  "name" : "Св. Климент и Пантелејмон",
  "name:en" : "St. Clement and Panteleimon",
  "latitude" : "41.1125013",
  "longitude" : "20.7908012",
  "building" : "church",
  "amenity" : "place_of_worship",
  "tourism" : "attraction",
  "denomination" : "macedonian_orthodox",
  "religion" : "christian"
}, {
  "id" : "34094478",
  "name" : "Св. Климент и Пантелејмон",
  "name:en" : "St. Clement and Panteleimon",
  "latitude" : "41.1125013",
  "longitude" : "20.7908012",
  "building" : "church",
  "amenity" : "place_of_worship",
  "tourism" : "attraction",
  "denomination" : "macedonian_orthodox",
  "religion" : "christian"
}, {
  "id" : "34321470",
  "name" : "Младински Културен Центар",
  "name:en" : "Youth Cultural Center",
  "addr:city" : "Cкoпje",
  "addr:city:en" : "Skopje",
  "latitude" : "41.9965179",
  "longitude" : "21.442879",
  "amenity" : "arts_centre"
}, {
  "id" : "35996507",
  "name" : "Турски Театар",
  "addr:city" : "Cкoпje",
  "addr:city:en" : "Skopje",
  "latitude" : "42.0045703",
  "longitude" : "21.4379614",
  "amenity" : "arts_centre"
}, {
  "id" : "37372709",
  "name" : "Беровско Езеро",
  "name:en" : "Berovo Lake",
  "latitude" : "41.6758078",
  "longitude" : "22.8989207",
  "tourism" : "attraction"
}, {
  "id" : "37748507",
  "name" : "Саат Кула",
  "name:en" : "Clock Tower",
  "addr:city" : "Битола",
  "latitude" : "41.0309344",
  "longitude" : "21.333901",
  "historic" : "tower",
  "tourism" : "attraction"
}, {
  "id" : "37748507",
  "name" : "Саат Кула",
  "name:en" : "Clock Tower",
  "addr:city" : "Битола",
  "latitude" : "41.0309344",
  "longitude" : "21.333901",
  "historic" : "tower",
  "tourism" : "attraction"
}, {
  "id" : "37866487",
  "name" : "Св. Ѓорѓи",
  "name:en" : "St. George",
  "latitude" : "41.9172507",
  "longitude" : "22.4079464",
  "amenity" : "place_of_worship",
  "religion" : "christian"
}, {
  "id" : "37866487",
  "name" : "Св. Ѓорѓи",
  "name:en" : "St. George",
  "latitude" : "41.9172507",
  "longitude" : "22.4079464",
  "amenity" : "place_of_worship",
  "religion" : "christian"
}, {
  "id" : "37910532",
  "name" : "Градски гробишта",
  "name:en" : "City Cemetery",
  "latitude" : "41.9120615",
  "longitude" : "22.4148709",
  "religion" : "christian"
}, {
  "id" : "37956139",
  "name" : "Хераклеа Линкестис",
  "name:en" : "Heraclea Lyncestis",
  "latitude" : "41.011223",
  "longitude" : "21.3434247",
  "historic" : "archaeological_site",
  "tourism" : "attraction"
}, {
  "id" : "37956139",
  "name" : "Хераклеа Линкестис",
  "name:en" : "Heraclea Lyncestis",
  "latitude" : "41.011223",
  "longitude" : "21.3434247",
  "historic" : "archaeological_site",
  "tourism" : "attraction"
}, {
  "id" : "38575706",
  "name" : "Јени Џамија",
  "name:en" : "Yeni Mosque",
  "latitude" : "41.0305683",
  "longitude" : "21.3349842",
  "amenity" : "place_of_worship",
  "tourism" : "attraction"
}, {
  "id" : "38575706",
  "name" : "Јени Џамија",
  "name:en" : "Yeni Mosque",
  "latitude" : "41.0305683",
  "longitude" : "21.3349842",
  "amenity" : "place_of_worship",
  "tourism" : "attraction"
}, {
  "id" : "38580676",
  "name" : "Магаза",
  "name:en" : "Magaza gallery",
  "latitude" : "41.0299956",
  "longitude" : "21.3350427",
  "tourism" : "museum"
}, {
  "id" : "38581757",
  "name" : "Исак Џамија",
  "name:en" : "Isak Mosque",
  "latitude" : "41.0320321",
  "longitude" : "21.334224",
  "amenity" : "place_of_worship"
}, {
  "id" : "38582552",
  "name" : "Св. Димитриј Солунски",
  "name:en" : "St. Demetrius of Salonica",
  "latitude" : "41.0299598",
  "longitude" : "21.3340939",
  "amenity" : "place_of_worship",
  "denomination" : "macedonian_orthodox",
  "religion" : "christian"
}, {
  "id" : "38582552",
  "name" : "Св. Димитриј Солунски",
  "name:en" : "St. Demetrius of Salonica",
  "latitude" : "41.0299598",
  "longitude" : "21.3340939",
  "amenity" : "place_of_worship",
  "denomination" : "macedonian_orthodox",
  "religion" : "christian"
}, {
  "id" : "38582552",
  "name" : "Св. Димитриј Солунски",
  "name:en" : "St. Demetrius of Salonica",
  "latitude" : "41.0299598",
  "longitude" : "21.3340939",
  "amenity" : "place_of_worship",
  "denomination" : "macedonian_orthodox",
  "religion" : "christian"
}, {
  "id" : "38765140",
  "name" : "Католичка црква Пресвето срце Исусово",
  "name:en" : "Sacred Heart of Jesus",
  "addr:city" : "Cкoпje",
  "addr:city:en" : "Skopje",
  "latitude" : "41.9950932",
  "longitude" : "21.4176045",
  "building" : "church",
  "amenity" : "place_of_worship",
  "religion" : "christian"
}, {
  "id" : "38765140",
  "name" : "Католичка црква Пресвето срце Исусово",
  "name:en" : "Sacred Heart of Jesus",
  "addr:city" : "Cкoпje",
  "addr:city:en" : "Skopje",
  "latitude" : "41.9950932",
  "longitude" : "21.4176045",
  "building" : "church",
  "amenity" : "place_of_worship",
  "religion" : "christian"
}, {
  "id" : "38765140",
  "name" : "Католичка црква Пресвето срце Исусово",
  "name:en" : "Sacred Heart of Jesus",
  "addr:city" : "Cкoпje",
  "addr:city:en" : "Skopje",
  "latitude" : "41.9950932",
  "longitude" : "21.4176045",
  "building" : "church",
  "amenity" : "place_of_worship",
  "religion" : "christian"
}, {
  "id" : "40413629",
  "name" : "Novi gradski grobishta Kriva Palanka",
  "latitude" : "42.18733",
  "longitude" : "22.2935684",
  "religion" : "christian"
}, {
  "id" : "40413632",
  "name" : "Stari gradski grobishta Kriva Palanka",
  "latitude" : "42.2000009",
  "longitude" : "22.335781",
  "religion" : "christian"
}, {
  "id" : "41753625",
  "name" : "Христијански гробишта",
  "name:en" : "Christian cemetery",
  "latitude" : "41.971648",
  "longitude" : "22.7607607",
  "religion" : "christian"
}, {
  "id" : "44026574",
  "name" : "Султан Муратова џамија",
  "addr:city" : "Cкoпje",
  "addr:city:en" : "Skopje",
  "latitude" : "42.0016521",
  "longitude" : "21.4411567",
  "amenity" : "place_of_worship"
}, {
  "id" : "44038503",
  "name" : "Саат-кула",
  "addr:city" : "Cкoпje",
  "addr:city:en" : "Skopje",
  "latitude" : "42.0020362",
  "longitude" : "21.4413913",
  "tourism" : "attraction"
}, {
  "id" : "44038732",
  "name" : "Иса-бегова џамија",
  "addr:city" : "Cкoпje",
  "addr:city:en" : "Skopje",
  "latitude" : "42.003259",
  "longitude" : "21.4415597",
  "amenity" : "place_of_worship",
  "tourism" : "attraction"
}, {
  "id" : "44038732",
  "name" : "Иса-бегова џамија",
  "addr:city" : "Cкoпje",
  "addr:city:en" : "Skopje",
  "latitude" : "42.003259",
  "longitude" : "21.4415597",
  "amenity" : "place_of_worship",
  "tourism" : "attraction"
}, {
  "id" : "44038943",
  "name" : "Алаџа-џамија",
  "name:en" : "Allaxha Mosque",
  "addr:city" : "Cкoпje",
  "addr:city:en" : "Skopje",
  "latitude" : "42.0046496",
  "longitude" : "21.4394979",
  "amenity" : "place_of_worship"
}, {
  "id" : "44039295",
  "name" : "Јаја-пашина џамија",
  "name:en" : "Yaya Pacha Mosque",
  "addr:city" : "Cкoпje",
  "addr:city:en" : "Skopje",
  "latitude" : "42.0076563",
  "longitude" : "21.4423466",
  "amenity" : "place_of_worship",
  "tourism" : "attraction"
}, {
  "id" : "44039295",
  "name" : "Јаја-пашина џамија",
  "name:en" : "Yaya Pacha Mosque",
  "addr:city" : "Cкoпje",
  "addr:city:en" : "Skopje",
  "latitude" : "42.0076563",
  "longitude" : "21.4423466",
  "amenity" : "place_of_worship",
  "tourism" : "attraction"
}, {
  "id" : "123273638",
  "name" : "Манастир Св. Пантелејмон",
  "name:en" : "Monastery Sv. Pantelejmon",
  "addr:city" : "Cкoпje",
  "addr:city:en" : "Skopje",
  "latitude" : "41.9768504",
  "longitude" : "21.3743601",
  "amenity" : "place_of_worship",
  "tourism" : "attraction",
  "religion" : "christian"
}, {
  "id" : "123273638",
  "name" : "Манастир Св. Пантелејмон",
  "name:en" : "Monastery Sv. Pantelejmon",
  "addr:city" : "Cкoпje",
  "addr:city:en" : "Skopje",
  "latitude" : "41.9768504",
  "longitude" : "21.3743601",
  "amenity" : "place_of_worship",
  "tourism" : "attraction",
  "religion" : "christian"
}, {
  "id" : "123273638",
  "name" : "Манастир Св. Пантелејмон",
  "name:en" : "Monastery Sv. Pantelejmon",
  "addr:city" : "Cкoпje",
  "addr:city:en" : "Skopje",
  "latitude" : "41.9768504",
  "longitude" : "21.3743601",
  "amenity" : "place_of_worship",
  "tourism" : "attraction",
  "religion" : "christian"
}, {
  "id" : "123273640",
  "name" : "Македонско село",
  "latitude" : "41.9764141",
  "longitude" : "21.3737551",
  "tourism" : "attraction"
}, {
  "id" : "131232665",
  "name" : "Црква Св. Ѓорги",
  "latitude" : "41.2195542",
  "longitude" : "22.7060739",
  "amenity" : "place_of_worship",
  "religion" : "christian"
}, {
  "id" : "131232665",
  "name" : "Црква Св. Ѓорги",
  "latitude" : "41.2195542",
  "longitude" : "22.7060739",
  "amenity" : "place_of_worship",
  "religion" : "christian"
}, {
  "id" : "134283604",
  "name" : "Девојачки Камен",
  "latitude" : "42.0679225",
  "longitude" : "21.2906001",
  "tourism" : "attraction"
}, {
  "id" : "150596710",
  "name" : "Спомен Костурница",
  "name:en" : "Kosturnica Memorial",
  "latitude" : "41.7232436",
  "longitude" : "21.7892333",
  "tourism" : "museum"
}, {
  "id" : "155870490",
  "name" : "Св. Богородица",
  "name:en" : "Saint Mary's Church",
  "latitude" : "41.0656111",
  "longitude" : "21.1043391",
  "building" : "church",
  "amenity" : "place_of_worship",
  "religion" : "christian"
}, {
  "id" : "155870490",
  "name" : "Св. Богородица",
  "name:en" : "Saint Mary's Church",
  "latitude" : "41.0656111",
  "longitude" : "21.1043391",
  "building" : "church",
  "amenity" : "place_of_worship",
  "religion" : "christian"
}, {
  "id" : "155870490",
  "name" : "Св. Богородица",
  "name:en" : "Saint Mary's Church",
  "latitude" : "41.0656111",
  "longitude" : "21.1043391",
  "building" : "church",
  "amenity" : "place_of_worship",
  "religion" : "christian"
}, {
  "id" : "158683818",
  "name" : "Свети Никола",
  "latitude" : "42.1374329",
  "longitude" : "21.7202523",
  "amenity" : "place_of_worship",
  "religion" : "christian"
}, {
  "id" : "158683818",
  "name" : "Свети Никола",
  "latitude" : "42.1374329",
  "longitude" : "21.7202523",
  "amenity" : "place_of_worship",
  "religion" : "christian"
}, {
  "id" : "159068224",
  "name" : "Споменик Костурница",
  "latitude" : "42.1455574",
  "longitude" : "21.722504",
  "historic" : "monument"
}, {
  "id" : "159356146",
  "name" : "Света Троица",
  "latitude" : "42.1340954",
  "longitude" : "21.7209336",
  "amenity" : "place_of_worship",
  "religion" : "christian"
}, {
  "id" : "159356146",
  "name" : "Света Троица",
  "latitude" : "42.1340954",
  "longitude" : "21.7209336",
  "amenity" : "place_of_worship",
  "religion" : "christian"
}, {
  "id" : "161468292",
  "name" : "Хиподром Волково",
  "name:en" : "Hipodrom Volkovo",
  "latitude" : "42.0506819",
  "longitude" : "21.361598",
  "tourism" : "attraction"
}, {
  "id" : "161469536",
  "name" : "Sv. Petka-Kuckovo",
  "latitude" : "42.0555663",
  "longitude" : "21.3026299",
  "amenity" : "place_of_worship",
  "religion" : "christian"
}, {
  "id" : "161469536",
  "name" : "Sv. Petka-Kuckovo",
  "latitude" : "42.0555663",
  "longitude" : "21.3026299",
  "amenity" : "place_of_worship",
  "religion" : "christian"
}, {
  "id" : "161469646",
  "name" : "Sv. Nedela-Kuckovo",
  "latitude" : "42.0554906",
  "longitude" : "21.302308",
  "amenity" : "place_of_worship",
  "religion" : "christian"
}, {
  "id" : "161469646",
  "name" : "Sv. Nedela-Kuckovo",
  "latitude" : "42.0554906",
  "longitude" : "21.302308",
  "amenity" : "place_of_worship",
  "religion" : "christian"
}, {
  "id" : "161469959",
  "name" : "Sv. Krstovden-Kuckovo",
  "latitude" : "42.0517106",
  "longitude" : "21.3110252",
  "amenity" : "place_of_worship",
  "religion" : "christian"
}, {
  "id" : "161469959",
  "name" : "Sv. Krstovden-Kuckovo",
  "latitude" : "42.0517106",
  "longitude" : "21.3110252",
  "amenity" : "place_of_worship",
  "religion" : "christian"
}, {
  "id" : "166531109",
  "name" : "Татар Синан Бег џамија",
  "name:en" : "Tatar Sinan Pasha Mosque",
  "latitude" : "42.1372699",
  "longitude" : "21.7150461",
  "amenity" : "place_of_worship"
}, {
  "id" : "167661160",
  "name" : "Evangelic-Methodist Church",
  "latitude" : "41.3811052",
  "longitude" : "22.8120917",
  "religion" : "christian"
}, {
  "id" : "169348417",
  "name" : "Буковски Гробишта",
  "name:en" : "Cemetery of Bukovo",
  "latitude" : "41.0139814",
  "longitude" : "21.341489",
  "religion" : "christian"
}, {
  "id" : "171384374",
  "name" : "Св. Кирил и Методиј",
  "name:en" : "Saints Cyril and Methodius",
  "latitude" : "41.0917518",
  "longitude" : "21.009203",
  "building" : "church",
  "amenity" : "place_of_worship",
  "religion" : "christian"
}, {
  "id" : "171384374",
  "name" : "Св. Кирил и Методиј",
  "name:en" : "Saints Cyril and Methodius",
  "latitude" : "41.0917518",
  "longitude" : "21.009203",
  "building" : "church",
  "amenity" : "place_of_worship",
  "religion" : "christian"
}, {
  "id" : "171384374",
  "name" : "Св. Кирил и Методиј",
  "name:en" : "Saints Cyril and Methodius",
  "latitude" : "41.0917518",
  "longitude" : "21.009203",
  "building" : "church",
  "amenity" : "place_of_worship",
  "religion" : "christian"
}, {
  "id" : "172171547",
  "name" : "Национална галерија „Даут-пашин амам“",
  "name:en" : "Daut Pasha Hamam National Gallery",
  "addr:city" : "Cкoпje",
  "addr:city:en" : "Skopje",
  "phone" : "+389 2 3133102",
  "opening_hours" : "Tu-Su 10:00-18:00",
  "latitude" : "41.998911",
  "longitude" : "21.4355586",
  "tourism" : "museum",
  "amenity" : "arts_centre"
}, {
  "id" : "172171547",
  "name" : "Национална галерија „Даут-пашин амам“",
  "name:en" : "Daut Pasha Hamam National Gallery",
  "addr:city" : "Cкoпje",
  "addr:city:en" : "Skopje",
  "phone" : "+389 2 3133102",
  "opening_hours" : "Tu-Su 10:00-18:00",
  "latitude" : "41.998911",
  "longitude" : "21.4355586",
  "tourism" : "museum",
  "amenity" : "arts_centre"
}, {
  "id" : "172178304",
  "name" : "Мустафа-пашина џамија",
  "name:en" : "Mustafa Pasha's Mosque",
  "addr:city" : "Cкoпje",
  "addr:city:en" : "Skopje",
  "latitude" : "42.0020559",
  "longitude" : "21.4352755",
  "amenity" : "place_of_worship",
  "tourism" : "attraction"
}, {
  "id" : "172178304",
  "name" : "Мустафа-пашина џамија",
  "name:en" : "Mustafa Pasha's Mosque",
  "addr:city" : "Cкoпje",
  "addr:city:en" : "Skopje",
  "latitude" : "42.0020559",
  "longitude" : "21.4352755",
  "amenity" : "place_of_worship",
  "tourism" : "attraction"
}, {
  "id" : "172180530",
  "name" : "Музеј на македонската борба",
  "name:en" : "Museum of the Macedonian struggle",
  "addr:city" : "Cкoпje",
  "addr:city:en" : "Skopje",
  "phone" : "+389 2 3256 667",
  "opening_hours" : "Tu-Su 10:00-18:00",
  "latitude" : "41.9982848",
  "longitude" : "21.4329425",
  "tourism" : "museum"
}, {
  "id" : "172186249",
  "name" : "Меморијален центар на холокаустот на Евреите од Македонија",
  "name:en" : "Holocaust Memorial Center for the Jews of Macedonia",
  "addr:city" : "Cкoпje",
  "addr:city:en" : "Skopje",
  "phone" : "+389 2 3122697",
  "latitude" : "41.9984101",
  "longitude" : "21.4331205",
  "historic" : "memorial",
  "tourism" : "museum"
}, {
  "id" : "172186249",
  "name" : "Меморијален центар на холокаустот на Евреите од Македонија",
  "name:en" : "Holocaust Memorial Center for the Jews of Macedonia",
  "addr:city" : "Cкoпje",
  "addr:city:en" : "Skopje",
  "phone" : "+389 2 3122697",
  "latitude" : "41.9984101",
  "longitude" : "21.4331205",
  "historic" : "memorial",
  "tourism" : "museum"
}, {
  "id" : "172191987",
  "name" : "Света Богородица - Матка",
  "latitude" : "41.962135",
  "longitude" : "21.2958384",
  "building" : "church",
  "amenity" : "place_of_worship",
  "tourism" : "attraction",
  "religion" : "christian"
}, {
  "id" : "172191987",
  "name" : "Света Богородица - Матка",
  "latitude" : "41.962135",
  "longitude" : "21.2958384",
  "building" : "church",
  "amenity" : "place_of_worship",
  "tourism" : "attraction",
  "religion" : "christian"
}, {
  "id" : "172191987",
  "name" : "Света Богородица - Матка",
  "latitude" : "41.962135",
  "longitude" : "21.2958384",
  "building" : "church",
  "amenity" : "place_of_worship",
  "tourism" : "attraction",
  "religion" : "christian"
}, {
  "id" : "172191987",
  "name" : "Света Богородица - Матка",
  "latitude" : "41.962135",
  "longitude" : "21.2958384",
  "building" : "church",
  "amenity" : "place_of_worship",
  "tourism" : "attraction",
  "religion" : "christian"
}, {
  "id" : "175162437",
  "name" : "Св. Архангел Михаил",
  "name:en" : "Saint Michael the Archangel",
  "addr:city" : "Cкoпje",
  "addr:city:en" : "Skopje",
  "latitude" : "42.0022077",
  "longitude" : "21.4570304",
  "building" : "church",
  "amenity" : "place_of_worship",
  "religion" : "christian"
}, {
  "id" : "175162437",
  "name" : "Св. Архангел Михаил",
  "name:en" : "Saint Michael the Archangel",
  "addr:city" : "Cкoпje",
  "addr:city:en" : "Skopje",
  "latitude" : "42.0022077",
  "longitude" : "21.4570304",
  "building" : "church",
  "amenity" : "place_of_worship",
  "religion" : "christian"
}, {
  "id" : "175162437",
  "name" : "Св. Архангел Михаил",
  "name:en" : "Saint Michael the Archangel",
  "addr:city" : "Cкoпje",
  "addr:city:en" : "Skopje",
  "latitude" : "42.0022077",
  "longitude" : "21.4570304",
  "building" : "church",
  "amenity" : "place_of_worship",
  "religion" : "christian"
}, {
  "id" : "175199074",
  "name" : "Saint Michael the Archangel",
  "addr:city" : "Cкoпje",
  "addr:city:en" : "Skopje",
  "latitude" : "42.0023722",
  "longitude" : "21.4567214",
  "denomination" : "macedonian_orthodox"
}, {
  "id" : "175265123",
  "name" : "Соборен храм Свети Климент Охридски",
  "name:en" : "Church of St. Clement of Ohrid",
  "addr:city" : "Cкoпje",
  "addr:city:en" : "Skopje",
  "latitude" : "41.9982824",
  "longitude" : "21.4264746",
  "building" : "church",
  "amenity" : "place_of_worship",
  "tourism" : "attraction",
  "religion" : "christian"
}, {
  "id" : "175265123",
  "name" : "Соборен храм Свети Климент Охридски",
  "name:en" : "Church of St. Clement of Ohrid",
  "addr:city" : "Cкoпje",
  "addr:city:en" : "Skopje",
  "latitude" : "41.9982824",
  "longitude" : "21.4264746",
  "building" : "church",
  "amenity" : "place_of_worship",
  "tourism" : "attraction",
  "religion" : "christian"
}, {
  "id" : "175265123",
  "name" : "Соборен храм Свети Климент Охридски",
  "name:en" : "Church of St. Clement of Ohrid",
  "addr:city" : "Cкoпje",
  "addr:city:en" : "Skopje",
  "latitude" : "41.9982824",
  "longitude" : "21.4264746",
  "building" : "church",
  "amenity" : "place_of_worship",
  "tourism" : "attraction",
  "religion" : "christian"
}, {
  "id" : "175265123",
  "name" : "Соборен храм Свети Климент Охридски",
  "name:en" : "Church of St. Clement of Ohrid",
  "addr:city" : "Cкoпje",
  "addr:city:en" : "Skopje",
  "latitude" : "41.9982824",
  "longitude" : "21.4264746",
  "building" : "church",
  "amenity" : "place_of_worship",
  "tourism" : "attraction",
  "religion" : "christian"
}, {
  "id" : "175391004",
  "name" : "Пресв. Богородица",
  "name:en" : "Holy Mother of God",
  "addr:city" : "Cкoпje",
  "addr:city:en" : "Skopje",
  "latitude" : "41.9961927",
  "longitude" : "21.4391375",
  "building" : "church",
  "amenity" : "place_of_worship",
  "denomination" : "macedonian_orthodox",
  "religion" : "christian"
}, {
  "id" : "175391004",
  "name" : "Пресв. Богородица",
  "name:en" : "Holy Mother of God",
  "addr:city" : "Cкoпje",
  "addr:city:en" : "Skopje",
  "latitude" : "41.9961927",
  "longitude" : "21.4391375",
  "building" : "church",
  "amenity" : "place_of_worship",
  "denomination" : "macedonian_orthodox",
  "religion" : "christian"
}, {
  "id" : "175391004",
  "name" : "Пресв. Богородица",
  "name:en" : "Holy Mother of God",
  "addr:city" : "Cкoпje",
  "addr:city:en" : "Skopje",
  "latitude" : "41.9961927",
  "longitude" : "21.4391375",
  "building" : "church",
  "amenity" : "place_of_worship",
  "denomination" : "macedonian_orthodox",
  "religion" : "christian"
}, {
  "id" : "175391004",
  "name" : "Пресв. Богородица",
  "name:en" : "Holy Mother of God",
  "addr:city" : "Cкoпje",
  "addr:city:en" : "Skopje",
  "latitude" : "41.9961927",
  "longitude" : "21.4391375",
  "building" : "church",
  "amenity" : "place_of_worship",
  "denomination" : "macedonian_orthodox",
  "religion" : "christian"
}, {
  "id" : "175476254",
  "name" : "Градски парк",
  "name:en" : "City Park",
  "latitude" : "42.0081125",
  "longitude" : "21.4231869",
  "tourism" : "attraction"
}, {
  "id" : "175671949",
  "name" : "Св. Ѓорѓи",
  "addr:city" : "Cкoпje",
  "addr:city:en" : "Skopje",
  "latitude" : "42.0120358",
  "longitude" : "21.4437044",
  "building" : "church",
  "amenity" : "place_of_worship",
  "religion" : "christian"
}, {
  "id" : "175671949",
  "name" : "Св. Ѓорѓи",
  "addr:city" : "Cкoпje",
  "addr:city:en" : "Skopje",
  "latitude" : "42.0120358",
  "longitude" : "21.4437044",
  "building" : "church",
  "amenity" : "place_of_worship",
  "religion" : "christian"
}, {
  "id" : "175671949",
  "name" : "Св. Ѓорѓи",
  "addr:city" : "Cкoпje",
  "addr:city:en" : "Skopje",
  "latitude" : "42.0120358",
  "longitude" : "21.4437044",
  "building" : "church",
  "amenity" : "place_of_worship",
  "religion" : "christian"
}, {
  "id" : "176040285",
  "name" : "Музеј на Град Скопје",
  "name:en" : "Museum of the City of Skopje",
  "addr:city" : "Cкoпje",
  "addr:city:en" : "Skopje",
  "phone" : "+389 2 3114742",
  "latitude" : "41.9912181",
  "longitude" : "21.4288883",
  "tourism" : "museum"
}, {
  "id" : "176051871",
  "name" : "Спомен куќа на Мајка Тереза",
  "name:en" : "Memorial House of Mother Teresa",
  "addr:city" : "Cкoпje",
  "addr:city:en" : "Skopje",
  "phone" : "+389 2 3290674",
  "opening_hours" : "Mo-Fr 09:00-20:00, Sa-Su 09:00-14:00",
  "latitude" : "41.9939282",
  "longitude" : "21.4307694",
  "tourism" : "museum"
}, {
  "id" : "176176613",
  "name" : "Св. Јован Крстител",
  "addr:city" : "Cкoпje",
  "addr:city:en" : "Skopje",
  "latitude" : "41.9930029",
  "longitude" : "21.4099171",
  "building" : "church",
  "amenity" : "place_of_worship",
  "religion" : "christian"
}, {
  "id" : "176176613",
  "name" : "Св. Јован Крстител",
  "addr:city" : "Cкoпje",
  "addr:city:en" : "Skopje",
  "latitude" : "41.9930029",
  "longitude" : "21.4099171",
  "building" : "church",
  "amenity" : "place_of_worship",
  "religion" : "christian"
}, {
  "id" : "176176613",
  "name" : "Св. Јован Крстител",
  "addr:city" : "Cкoпje",
  "addr:city:en" : "Skopje",
  "latitude" : "41.9930029",
  "longitude" : "21.4099171",
  "building" : "church",
  "amenity" : "place_of_worship",
  "religion" : "christian"
}, {
  "id" : "176334067",
  "name" : "Св. Георгиј",
  "addr:city" : "Cкoпje",
  "addr:city:en" : "Skopje",
  "latitude" : "42.0121418",
  "longitude" : "21.4241995",
  "building" : "church",
  "amenity" : "place_of_worship",
  "religion" : "christian"
}, {
  "id" : "176334067",
  "name" : "Св. Георгиј",
  "addr:city" : "Cкoпje",
  "addr:city:en" : "Skopje",
  "latitude" : "42.0121418",
  "longitude" : "21.4241995",
  "building" : "church",
  "amenity" : "place_of_worship",
  "religion" : "christian"
}, {
  "id" : "176334067",
  "name" : "Св. Георгиј",
  "addr:city" : "Cкoпje",
  "addr:city:en" : "Skopje",
  "latitude" : "42.0121418",
  "longitude" : "21.4241995",
  "building" : "church",
  "amenity" : "place_of_worship",
  "religion" : "christian"
}, {
  "id" : "176448605",
  "name" : "Дом на Градежници",
  "addr:city" : "Cкoпje",
  "addr:city:en" : "Skopje",
  "latitude" : "41.9958385",
  "longitude" : "21.4269004",
  "amenity" : "arts_centre"
}, {
  "id" : "177401426",
  "name" : "Св. Спас",
  "latitude" : "41.9946257",
  "longitude" : "21.5030458",
  "building" : "church",
  "amenity" : "place_of_worship",
  "religion" : "christian"
}, {
  "id" : "177401426",
  "name" : "Св. Спас",
  "latitude" : "41.9946257",
  "longitude" : "21.5030458",
  "building" : "church",
  "amenity" : "place_of_worship",
  "religion" : "christian"
}, {
  "id" : "177401426",
  "name" : "Св. Спас",
  "latitude" : "41.9946257",
  "longitude" : "21.5030458",
  "building" : "church",
  "amenity" : "place_of_worship",
  "religion" : "christian"
}, {
  "id" : "177490047",
  "name" : "Марков Манастир",
  "name:en" : "Marko's Monastery",
  "latitude" : "41.8935685",
  "longitude" : "21.4019815",
  "amenity" : "place_of_worship",
  "tourism" : "attraction",
  "religion" : "christian"
}, {
  "id" : "177490047",
  "name" : "Марков Манастир",
  "name:en" : "Marko's Monastery",
  "latitude" : "41.8935685",
  "longitude" : "21.4019815",
  "amenity" : "place_of_worship",
  "tourism" : "attraction",
  "religion" : "christian"
}, {
  "id" : "177490047",
  "name" : "Марков Манастир",
  "name:en" : "Marko's Monastery",
  "latitude" : "41.8935685",
  "longitude" : "21.4019815",
  "amenity" : "place_of_worship",
  "tourism" : "attraction",
  "religion" : "christian"
}, {
  "id" : "177490048",
  "name" : "Св. Димитрија",
  "latitude" : "41.8935746",
  "longitude" : "21.4021727",
  "building" : "church",
  "amenity" : "place_of_worship",
  "religion" : "christian"
}, {
  "id" : "177490048",
  "name" : "Св. Димитрија",
  "latitude" : "41.8935746",
  "longitude" : "21.4021727",
  "building" : "church",
  "amenity" : "place_of_worship",
  "religion" : "christian"
}, {
  "id" : "177490048",
  "name" : "Св. Димитрија",
  "latitude" : "41.8935746",
  "longitude" : "21.4021727",
  "building" : "church",
  "amenity" : "place_of_worship",
  "religion" : "christian"
}, {
  "id" : "177518302",
  "name" : "Св. Петка",
  "latitude" : "42.1702918",
  "longitude" : "21.8109533",
  "building" : "church",
  "amenity" : "place_of_worship",
  "religion" : "christian"
}, {
  "id" : "177518302",
  "name" : "Св. Петка",
  "latitude" : "42.1702918",
  "longitude" : "21.8109533",
  "building" : "church",
  "amenity" : "place_of_worship",
  "religion" : "christian"
}, {
  "id" : "177518302",
  "name" : "Св. Петка",
  "latitude" : "42.1702918",
  "longitude" : "21.8109533",
  "building" : "church",
  "amenity" : "place_of_worship",
  "religion" : "christian"
}, {
  "id" : "177683948",
  "name" : "Евагелистичка Методистичка Црква",
  "addr:city" : "Cкoпje",
  "addr:city:en" : "Skopje",
  "latitude" : "41.9965678",
  "longitude" : "21.4235502",
  "building" : "church",
  "amenity" : "place_of_worship",
  "religion" : "christian"
}, {
  "id" : "177683948",
  "name" : "Евагелистичка Методистичка Црква",
  "addr:city" : "Cкoпje",
  "addr:city:en" : "Skopje",
  "latitude" : "41.9965678",
  "longitude" : "21.4235502",
  "building" : "church",
  "amenity" : "place_of_worship",
  "religion" : "christian"
}, {
  "id" : "177683948",
  "name" : "Евагелистичка Методистичка Црква",
  "addr:city" : "Cкoпje",
  "addr:city:en" : "Skopje",
  "latitude" : "41.9965678",
  "longitude" : "21.4235502",
  "building" : "church",
  "amenity" : "place_of_worship",
  "religion" : "christian"
}, {
  "id" : "179291828",
  "name" : "Манастир „Свети Наум“",
  "name:en" : "Monastery of Saint Naum",
  "latitude" : "40.913963",
  "longitude" : "20.7404962",
  "historic" : "church",
  "amenity" : "place_of_worship",
  "tourism" : "attraction",
  "denomination" : "macedonian_orthodox",
  "religion" : "christian"
}, {
  "id" : "179291828",
  "name" : "Манастир „Свети Наум“",
  "name:en" : "Monastery of Saint Naum",
  "latitude" : "40.913963",
  "longitude" : "20.7404962",
  "historic" : "church",
  "amenity" : "place_of_worship",
  "tourism" : "attraction",
  "denomination" : "macedonian_orthodox",
  "religion" : "christian"
}, {
  "id" : "179291828",
  "name" : "Манастир „Свети Наум“",
  "name:en" : "Monastery of Saint Naum",
  "latitude" : "40.913963",
  "longitude" : "20.7404962",
  "historic" : "church",
  "amenity" : "place_of_worship",
  "tourism" : "attraction",
  "denomination" : "macedonian_orthodox",
  "religion" : "christian"
}, {
  "id" : "179291828",
  "name" : "Манастир „Свети Наум“",
  "name:en" : "Monastery of Saint Naum",
  "latitude" : "40.913963",
  "longitude" : "20.7404962",
  "historic" : "church",
  "amenity" : "place_of_worship",
  "tourism" : "attraction",
  "denomination" : "macedonian_orthodox",
  "religion" : "christian"
}, {
  "id" : "179291828",
  "name" : "Манастир „Свети Наум“",
  "name:en" : "Monastery of Saint Naum",
  "latitude" : "40.913963",
  "longitude" : "20.7404962",
  "historic" : "church",
  "amenity" : "place_of_worship",
  "tourism" : "attraction",
  "denomination" : "macedonian_orthodox",
  "religion" : "christian"
}, {
  "id" : "179607964",
  "name" : "Свети Илија",
  "addr:city" : "Cкoпje",
  "addr:city:en" : "Skopje",
  "latitude" : "41.985899",
  "longitude" : "21.4580119",
  "building" : "church",
  "amenity" : "place_of_worship",
  "religion" : "christian"
}, {
  "id" : "179607964",
  "name" : "Свети Илија",
  "addr:city" : "Cкoпje",
  "addr:city:en" : "Skopje",
  "latitude" : "41.985899",
  "longitude" : "21.4580119",
  "building" : "church",
  "amenity" : "place_of_worship",
  "religion" : "christian"
}, {
  "id" : "179607964",
  "name" : "Свети Илија",
  "addr:city" : "Cкoпje",
  "addr:city:en" : "Skopje",
  "latitude" : "41.985899",
  "longitude" : "21.4580119",
  "building" : "church",
  "amenity" : "place_of_worship",
  "religion" : "christian"
}, {
  "id" : "180363121",
  "name" : "Национална галерија на Македонија „Чифте-амам“",
  "name:en" : "Chifte Hammam National Gallery of Macedonia",
  "addr:city" : "Cкoпje",
  "addr:city:en" : "Skopje",
  "phone" : "+389 2 3227986",
  "opening_hours" : "Tu-Su 10:00-18:00",
  "latitude" : "42.0014097",
  "longitude" : "21.4373979",
  "tourism" : "gallery"
}, {
  "id" : "180587526",
  "name" : "Ѓуришки Манастир",
  "latitude" : "41.9032815",
  "longitude" : "21.8375135",
  "amenity" : "place_of_worship",
  "religion" : "christian"
}, {
  "id" : "180587526",
  "name" : "Ѓуришки Манастир",
  "latitude" : "41.9032815",
  "longitude" : "21.8375135",
  "amenity" : "place_of_worship",
  "religion" : "christian"
}, {
  "id" : "181715932",
  "name" : "Аквапарк Пробиштип",
  "name:en" : "Aqua Park Probishtip",
  "latitude" : "42.0059062",
  "longitude" : "22.1755492",
  "tourism" : "attraction"
}, {
  "id" : "181727867",
  "name" : "Манастир Св. Јоаким Осоговски",
  "name:en" : "Monastery of St. Joakim Osogovski",
  "latitude" : "42.2091103",
  "longitude" : "22.3613619",
  "historic" : "monastery",
  "tourism" : "attraction",
  "religion" : "christian"
}, {
  "id" : "181727867",
  "name" : "Манастир Св. Јоаким Осоговски",
  "name:en" : "Monastery of St. Joakim Osogovski",
  "latitude" : "42.2091103",
  "longitude" : "22.3613619",
  "historic" : "monastery",
  "tourism" : "attraction",
  "religion" : "christian"
}, {
  "id" : "181727867",
  "name" : "Манастир Св. Јоаким Осоговски",
  "name:en" : "Monastery of St. Joakim Osogovski",
  "latitude" : "42.2091103",
  "longitude" : "22.3613619",
  "historic" : "monastery",
  "tourism" : "attraction",
  "religion" : "christian"
}, {
  "id" : "181727870",
  "name" : "Св. Јоаким Осоговски",
  "name:en" : "St. Joakim Osogovski",
  "latitude" : "42.208686",
  "longitude" : "22.3621875",
  "amenity" : "place_of_worship",
  "religion" : "christian"
}, {
  "id" : "181727870",
  "name" : "Св. Јоаким Осоговски",
  "name:en" : "St. Joakim Osogovski",
  "latitude" : "42.208686",
  "longitude" : "22.3621875",
  "amenity" : "place_of_worship",
  "religion" : "christian"
}, {
  "id" : "181986735",
  "name" : "Лесновски манастир",
  "name:en" : "Lesnovo Monastery",
  "latitude" : "42.0133138",
  "longitude" : "22.2274526",
  "historic" : "yes",
  "tourism" : "attraction",
  "religion" : "christian"
}, {
  "id" : "181986735",
  "name" : "Лесновски манастир",
  "name:en" : "Lesnovo Monastery",
  "latitude" : "42.0133138",
  "longitude" : "22.2274526",
  "historic" : "yes",
  "tourism" : "attraction",
  "religion" : "christian"
}, {
  "id" : "181986735",
  "name" : "Лесновски манастир",
  "name:en" : "Lesnovo Monastery",
  "latitude" : "42.0133138",
  "longitude" : "22.2274526",
  "historic" : "yes",
  "tourism" : "attraction",
  "religion" : "christian"
}, {
  "id" : "181986741",
  "name" : "Св. Архангел Михаил",
  "name:en" : "Saint Michael's Church",
  "latitude" : "42.0133035",
  "longitude" : "22.2281268",
  "amenity" : "place_of_worship",
  "religion" : "christian"
}, {
  "id" : "181986741",
  "name" : "Св. Архангел Михаил",
  "name:en" : "Saint Michael's Church",
  "latitude" : "42.0133035",
  "longitude" : "22.2281268",
  "amenity" : "place_of_worship",
  "religion" : "christian"
}, {
  "id" : "182451777",
  "name" : "Картинг Клуб",
  "name:en" : "Karting Club",
  "latitude" : "42.0415006",
  "longitude" : "21.3526797",
  "tourism" : "attraction"
}, {
  "id" : "182927657",
  "name" : "Манастир Св. Богородица",
  "name:en" : "St. Holy Mother of God Monastery",
  "latitude" : "42.125697",
  "longitude" : "21.4277654",
  "historic" : "yes",
  "amenity" : "place_of_worship",
  "tourism" : "attraction",
  "religion" : "christian"
}, {
  "id" : "182927657",
  "name" : "Манастир Св. Богородица",
  "name:en" : "St. Holy Mother of God Monastery",
  "latitude" : "42.125697",
  "longitude" : "21.4277654",
  "historic" : "yes",
  "amenity" : "place_of_worship",
  "tourism" : "attraction",
  "religion" : "christian"
}, {
  "id" : "182927657",
  "name" : "Манастир Св. Богородица",
  "name:en" : "St. Holy Mother of God Monastery",
  "latitude" : "42.125697",
  "longitude" : "21.4277654",
  "historic" : "yes",
  "amenity" : "place_of_worship",
  "tourism" : "attraction",
  "religion" : "christian"
}, {
  "id" : "182927657",
  "name" : "Манастир Св. Богородица",
  "name:en" : "St. Holy Mother of God Monastery",
  "latitude" : "42.125697",
  "longitude" : "21.4277654",
  "historic" : "yes",
  "amenity" : "place_of_worship",
  "tourism" : "attraction",
  "religion" : "christian"
}, {
  "id" : "182933841",
  "name" : "Манастир Св. Никола",
  "name:en" : "Saint Nicholas Monastery",
  "latitude" : "42.1100617",
  "longitude" : "21.4694062",
  "historic" : "yes",
  "amenity" : "place_of_worship",
  "tourism" : "attraction",
  "religion" : "christian"
}, {
  "id" : "182933841",
  "name" : "Манастир Св. Никола",
  "name:en" : "Saint Nicholas Monastery",
  "latitude" : "42.1100617",
  "longitude" : "21.4694062",
  "historic" : "yes",
  "amenity" : "place_of_worship",
  "tourism" : "attraction",
  "religion" : "christian"
}, {
  "id" : "182933841",
  "name" : "Манастир Св. Никола",
  "name:en" : "Saint Nicholas Monastery",
  "latitude" : "42.1100617",
  "longitude" : "21.4694062",
  "historic" : "yes",
  "amenity" : "place_of_worship",
  "tourism" : "attraction",
  "religion" : "christian"
}, {
  "id" : "182933841",
  "name" : "Манастир Св. Никола",
  "name:en" : "Saint Nicholas Monastery",
  "latitude" : "42.1100617",
  "longitude" : "21.4694062",
  "historic" : "yes",
  "amenity" : "place_of_worship",
  "tourism" : "attraction",
  "religion" : "christian"
}, {
  "id" : "183590617",
  "name" : "Манастир Св. Илија",
  "name:en" : "Monastery of St. Elijah",
  "latitude" : "42.0855955",
  "longitude" : "21.4093975",
  "amenity" : "place_of_worship",
  "tourism" : "attraction",
  "religion" : "christian"
}, {
  "id" : "183590617",
  "name" : "Манастир Св. Илија",
  "name:en" : "Monastery of St. Elijah",
  "latitude" : "42.0855955",
  "longitude" : "21.4093975",
  "amenity" : "place_of_worship",
  "tourism" : "attraction",
  "religion" : "christian"
}, {
  "id" : "183590617",
  "name" : "Манастир Св. Илија",
  "name:en" : "Monastery of St. Elijah",
  "latitude" : "42.0855955",
  "longitude" : "21.4093975",
  "amenity" : "place_of_worship",
  "tourism" : "attraction",
  "religion" : "christian"
}, {
  "id" : "184298875",
  "name" : "Манастир Добра Вода",
  "name:en" : "Monastery Dobra Voda",
  "latitude" : "41.9381449",
  "longitude" : "22.4591283",
  "amenity" : "place_of_worship",
  "tourism" : "attraction",
  "religion" : "christian"
}, {
  "id" : "184298875",
  "name" : "Манастир Добра Вода",
  "name:en" : "Monastery Dobra Voda",
  "latitude" : "41.9381449",
  "longitude" : "22.4591283",
  "amenity" : "place_of_worship",
  "tourism" : "attraction",
  "religion" : "christian"
}, {
  "id" : "184298875",
  "name" : "Манастир Добра Вода",
  "name:en" : "Monastery Dobra Voda",
  "latitude" : "41.9381449",
  "longitude" : "22.4591283",
  "amenity" : "place_of_worship",
  "tourism" : "attraction",
  "religion" : "christian"
}, {
  "id" : "184307286",
  "name" : "Средновековна Кула",
  "name:en" : "Medieval Tower",
  "latitude" : "41.9215823",
  "longitude" : "22.4090133",
  "historic" : "tower"
}, {
  "id" : "184313963",
  "name" : "Средновековна Кула",
  "name:en" : "Medieval Tower",
  "latitude" : "41.9234488",
  "longitude" : "22.4120247",
  "historic" : "tower"
}, {
  "id" : "184613907",
  "name" : "Манастир Св. Пантелејом",
  "name:en" : "Monastery St. Panteleimon",
  "latitude" : "41.9685849",
  "longitude" : "22.3090906",
  "amenity" : "place_of_worship",
  "tourism" : "attraction",
  "religion" : "christian"
}, {
  "id" : "184613907",
  "name" : "Манастир Св. Пантелејом",
  "name:en" : "Monastery St. Panteleimon",
  "latitude" : "41.9685849",
  "longitude" : "22.3090906",
  "amenity" : "place_of_worship",
  "tourism" : "attraction",
  "religion" : "christian"
}, {
  "id" : "184613907",
  "name" : "Манастир Св. Пантелејом",
  "name:en" : "Monastery St. Panteleimon",
  "latitude" : "41.9685849",
  "longitude" : "22.3090906",
  "amenity" : "place_of_worship",
  "tourism" : "attraction",
  "religion" : "christian"
}, {
  "id" : "186263287",
  "name" : "Манастир Раѓање на Пресвета Богородица",
  "name:en" : "Monastery Birth of the Holly Mother",
  "latitude" : "41.6265106",
  "longitude" : "21.1940593",
  "amenity" : "place_of_worship",
  "tourism" : "attraction",
  "religion" : "christian"
}, {
  "id" : "186263287",
  "name" : "Манастир Раѓање на Пресвета Богородица",
  "name:en" : "Monastery Birth of the Holly Mother",
  "latitude" : "41.6265106",
  "longitude" : "21.1940593",
  "amenity" : "place_of_worship",
  "tourism" : "attraction",
  "religion" : "christian"
}, {
  "id" : "186263287",
  "name" : "Манастир Раѓање на Пресвета Богородица",
  "name:en" : "Monastery Birth of the Holly Mother",
  "latitude" : "41.6265106",
  "longitude" : "21.1940593",
  "amenity" : "place_of_worship",
  "tourism" : "attraction",
  "religion" : "christian"
}, {
  "id" : "188625183",
  "name" : "Манастир Св. Петка",
  "name:en" : "Monastery St. Paraskevi",
  "latitude" : "41.7896247",
  "longitude" : "22.3272927",
  "amenity" : "place_of_worship",
  "tourism" : "attraction",
  "religion" : "christian"
}, {
  "id" : "188625183",
  "name" : "Манастир Св. Петка",
  "name:en" : "Monastery St. Paraskevi",
  "latitude" : "41.7896247",
  "longitude" : "22.3272927",
  "amenity" : "place_of_worship",
  "tourism" : "attraction",
  "religion" : "christian"
}, {
  "id" : "188625183",
  "name" : "Манастир Св. Петка",
  "name:en" : "Monastery St. Paraskevi",
  "latitude" : "41.7896247",
  "longitude" : "22.3272927",
  "amenity" : "place_of_worship",
  "tourism" : "attraction",
  "religion" : "christian"
}, {
  "id" : "189884671",
  "name" : "Аквапарк",
  "name:en" : "Aquapark",
  "addr:city" : "Cкoпje",
  "addr:city:en" : "Skopje",
  "opening_hours" : "May-Sep: 10:00-20:00",
  "latitude" : "42.0114684",
  "longitude" : "21.403485",
  "tourism" : "attraction"
}, {
  "id" : "189909367",
  "name" : "Баргала",
  "name:en" : "Bargala",
  "latitude" : "41.8007957",
  "longitude" : "22.2883548",
  "historic" : "ruins",
  "tourism" : "attraction"
}, {
  "id" : "189909367",
  "name" : "Баргала",
  "name:en" : "Bargala",
  "latitude" : "41.8007957",
  "longitude" : "22.2883548",
  "historic" : "ruins",
  "tourism" : "attraction"
}, {
  "id" : "190247470",
  "name" : "Манастир Св. Архангели",
  "name:en" : "Monastery St, Archangels",
  "latitude" : "42.1322905",
  "longitude" : "21.4137215",
  "amenity" : "place_of_worship",
  "religion" : "christian"
}, {
  "id" : "190247470",
  "name" : "Манастир Св. Архангели",
  "name:en" : "Monastery St, Archangels",
  "latitude" : "42.1322905",
  "longitude" : "21.4137215",
  "amenity" : "place_of_worship",
  "religion" : "christian"
}, {
  "id" : "190250979",
  "name" : "Манастир Св. Архангели",
  "name:en" : "Monastery St. Archangels",
  "latitude" : "42.1322923",
  "longitude" : "21.4137098",
  "amenity" : "place_of_worship",
  "tourism" : "attraction",
  "religion" : "christian"
}, {
  "id" : "190250979",
  "name" : "Манастир Св. Архангели",
  "name:en" : "Monastery St. Archangels",
  "latitude" : "42.1322923",
  "longitude" : "21.4137098",
  "amenity" : "place_of_worship",
  "tourism" : "attraction",
  "religion" : "christian"
}, {
  "id" : "190250979",
  "name" : "Манастир Св. Архангели",
  "name:en" : "Monastery St. Archangels",
  "latitude" : "42.1322923",
  "longitude" : "21.4137098",
  "amenity" : "place_of_worship",
  "tourism" : "attraction",
  "religion" : "christian"
}, {
  "id" : "192121734",
  "name" : "Џамија Ајдар Кади",
  "addr:city" : "Битола",
  "latitude" : "41.0350971",
  "longitude" : "21.3384364",
  "historic" : "yes",
  "amenity" : "place_of_worship",
  "tourism" : "attraction"
}, {
  "id" : "192121734",
  "name" : "Џамија Ајдар Кади",
  "addr:city" : "Битола",
  "latitude" : "41.0350971",
  "longitude" : "21.3384364",
  "historic" : "yes",
  "amenity" : "place_of_worship",
  "tourism" : "attraction"
}, {
  "id" : "192121734",
  "name" : "Џамија Ајдар Кади",
  "addr:city" : "Битола",
  "latitude" : "41.0350971",
  "longitude" : "21.3384364",
  "historic" : "yes",
  "amenity" : "place_of_worship",
  "tourism" : "attraction"
}, {
  "id" : "192125506",
  "name" : "Китино Кале",
  "name:en" : "Kita Castle",
  "latitude" : "41.5130747",
  "longitude" : "20.9666504",
  "historic" : "monument",
  "tourism" : "attraction"
}, {
  "id" : "192125506",
  "name" : "Китино Кале",
  "name:en" : "Kita Castle",
  "latitude" : "41.5130747",
  "longitude" : "20.9666504",
  "historic" : "monument",
  "tourism" : "attraction"
}, {
  "id" : "194610965",
  "name" : "Св. Софија",
  "name:en" : "Church of St. Sophia",
  "addr:city" : "Ohrid",
  "latitude" : "41.1122375",
  "longitude" : "20.7939374",
  "building" : "church",
  "amenity" : "place_of_worship",
  "tourism" : "attraction",
  "denomination" : "macedonian_orthodox",
  "religion" : "christian"
}, {
  "id" : "194610965",
  "name" : "Св. Софија",
  "name:en" : "Church of St. Sophia",
  "addr:city" : "Ohrid",
  "latitude" : "41.1122375",
  "longitude" : "20.7939374",
  "building" : "church",
  "amenity" : "place_of_worship",
  "tourism" : "attraction",
  "denomination" : "macedonian_orthodox",
  "religion" : "christian"
}, {
  "id" : "194610965",
  "name" : "Св. Софија",
  "name:en" : "Church of St. Sophia",
  "addr:city" : "Ohrid",
  "latitude" : "41.1122375",
  "longitude" : "20.7939374",
  "building" : "church",
  "amenity" : "place_of_worship",
  "tourism" : "attraction",
  "denomination" : "macedonian_orthodox",
  "religion" : "christian"
}, {
  "id" : "194610965",
  "name" : "Св. Софија",
  "name:en" : "Church of St. Sophia",
  "addr:city" : "Ohrid",
  "latitude" : "41.1122375",
  "longitude" : "20.7939374",
  "building" : "church",
  "amenity" : "place_of_worship",
  "tourism" : "attraction",
  "denomination" : "macedonian_orthodox",
  "religion" : "christian"
}, {
  "id" : "194610965",
  "name" : "Св. Софија",
  "name:en" : "Church of St. Sophia",
  "addr:city" : "Ohrid",
  "latitude" : "41.1122375",
  "longitude" : "20.7939374",
  "building" : "church",
  "amenity" : "place_of_worship",
  "tourism" : "attraction",
  "denomination" : "macedonian_orthodox",
  "religion" : "christian"
}, {
  "id" : "197146942",
  "name" : "Св. Архангел Михаил",
  "name:en" : "St. Michael the Archangel",
  "latitude" : "41.7639049",
  "longitude" : "20.8373423",
  "amenity" : "place_of_worship",
  "denomination" : "macedonian_orthodox",
  "religion" : "christian"
}, {
  "id" : "197146942",
  "name" : "Св. Архангел Михаил",
  "name:en" : "St. Michael the Archangel",
  "latitude" : "41.7639049",
  "longitude" : "20.8373423",
  "amenity" : "place_of_worship",
  "denomination" : "macedonian_orthodox",
  "religion" : "christian"
}, {
  "id" : "197146942",
  "name" : "Св. Архангел Михаил",
  "name:en" : "St. Michael the Archangel",
  "latitude" : "41.7639049",
  "longitude" : "20.8373423",
  "amenity" : "place_of_worship",
  "denomination" : "macedonian_orthodox",
  "religion" : "christian"
}, {
  "id" : "197929849",
  "name" : "Св. Спас",
  "name:en" : "Holy Salvation",
  "latitude" : "41.261401",
  "longitude" : "21.4867188",
  "building" : "church",
  "amenity" : "place_of_worship",
  "denomination" : "macedonian_orthodox",
  "religion" : "christian"
}, {
  "id" : "197929849",
  "name" : "Св. Спас",
  "name:en" : "Holy Salvation",
  "latitude" : "41.261401",
  "longitude" : "21.4867188",
  "building" : "church",
  "amenity" : "place_of_worship",
  "denomination" : "macedonian_orthodox",
  "religion" : "christian"
}, {
  "id" : "197929849",
  "name" : "Св. Спас",
  "name:en" : "Holy Salvation",
  "latitude" : "41.261401",
  "longitude" : "21.4867188",
  "building" : "church",
  "amenity" : "place_of_worship",
  "denomination" : "macedonian_orthodox",
  "religion" : "christian"
}, {
  "id" : "197929849",
  "name" : "Св. Спас",
  "name:en" : "Holy Salvation",
  "latitude" : "41.261401",
  "longitude" : "21.4867188",
  "building" : "church",
  "amenity" : "place_of_worship",
  "denomination" : "macedonian_orthodox",
  "religion" : "christian"
}, {
  "id" : "198002840",
  "name" : "Св. Ѓорѓија",
  "name:en" : "St. George",
  "latitude" : "42.0243087",
  "longitude" : "21.6759664",
  "building" : "church",
  "amenity" : "place_of_worship",
  "religion" : "christian"
}, {
  "id" : "198002840",
  "name" : "Св. Ѓорѓија",
  "name:en" : "St. George",
  "latitude" : "42.0243087",
  "longitude" : "21.6759664",
  "building" : "church",
  "amenity" : "place_of_worship",
  "religion" : "christian"
}, {
  "id" : "198002840",
  "name" : "Св. Ѓорѓија",
  "name:en" : "St. George",
  "latitude" : "42.0243087",
  "longitude" : "21.6759664",
  "building" : "church",
  "amenity" : "place_of_worship",
  "religion" : "christian"
}, {
  "id" : "199050953",
  "name" : "Црква „Св. Петар“",
  "name:en" : "St. Peter's Church",
  "latitude" : "40.8698346",
  "longitude" : "20.9882604",
  "amenity" : "place_of_worship",
  "religion" : "christian"
}, {
  "id" : "199050953",
  "name" : "Црква „Св. Петар“",
  "name:en" : "St. Peter's Church",
  "latitude" : "40.8698346",
  "longitude" : "20.9882604",
  "amenity" : "place_of_worship",
  "religion" : "christian"
}, {
  "id" : "199050954",
  "name" : "Црква „Св. Димитриј“",
  "name:en" : "St. Demetrius",
  "latitude" : "40.8686837",
  "longitude" : "20.988398",
  "amenity" : "place_of_worship",
  "religion" : "christian"
}, {
  "id" : "199050954",
  "name" : "Црква „Св. Димитриј“",
  "name:en" : "St. Demetrius",
  "latitude" : "40.8686837",
  "longitude" : "20.988398",
  "amenity" : "place_of_worship",
  "religion" : "christian"
}, {
  "id" : "199052359",
  "name" : "Стара базилика",
  "name:en" : "Old Basilica",
  "latitude" : "40.867063",
  "longitude" : "20.9886913",
  "historic" : "archaeological_site"
}, {
  "id" : "199052629",
  "name" : "Римска цистерна",
  "name:en" : "Roman Cistern",
  "latitude" : "40.8681553",
  "longitude" : "20.9903828",
  "historic" : "archaeological_site"
}, {
  "id" : "199056987",
  "name" : "Старохристијанска базилика",
  "latitude" : "40.8688965",
  "longitude" : "20.9908415",
  "historic" : "archaeological_site"
}, {
  "id" : "199056988",
  "name" : "Римска Куќа",
  "latitude" : "40.8685639",
  "longitude" : "20.9909817",
  "historic" : "archaeological_site"
}, {
  "id" : "199056990",
  "name" : "Римска куќа",
  "latitude" : "40.8692944",
  "longitude" : "20.9905255",
  "historic" : "archaeological_site"
}, {
  "id" : "199056991",
  "name" : "Ранохристијанска базилика",
  "latitude" : "40.8692246",
  "longitude" : "20.9909743",
  "historic" : "archaeological_site"
}, {
  "id" : "201390520",
  "name" : "Мавровско Езеро",
  "name:en" : "Mavrovo Lake",
  "latitude" : "41.696956",
  "longitude" : "20.7471985",
  "tourism" : "attraction"
}, {
  "id" : "205985909",
  "name" : "Св. Никола",
  "name:en" : "St. Nicholas",
  "latitude" : "41.2588989",
  "longitude" : "21.4227476",
  "building" : "church",
  "amenity" : "place_of_worship",
  "denomination" : "macedonian_orthodox",
  "religion" : "christian"
}, {
  "id" : "205985909",
  "name" : "Св. Никола",
  "name:en" : "St. Nicholas",
  "latitude" : "41.2588989",
  "longitude" : "21.4227476",
  "building" : "church",
  "amenity" : "place_of_worship",
  "denomination" : "macedonian_orthodox",
  "religion" : "christian"
}, {
  "id" : "205985909",
  "name" : "Св. Никола",
  "name:en" : "St. Nicholas",
  "latitude" : "41.2588989",
  "longitude" : "21.4227476",
  "building" : "church",
  "amenity" : "place_of_worship",
  "denomination" : "macedonian_orthodox",
  "religion" : "christian"
}, {
  "id" : "205985909",
  "name" : "Св. Никола",
  "name:en" : "St. Nicholas",
  "latitude" : "41.2588989",
  "longitude" : "21.4227476",
  "building" : "church",
  "amenity" : "place_of_worship",
  "denomination" : "macedonian_orthodox",
  "religion" : "christian"
}, {
  "id" : "206265206",
  "name" : "Св. Илија",
  "name:en" : "St. Eliyah",
  "latitude" : "41.3416812",
  "longitude" : "21.3996227",
  "building" : "church",
  "amenity" : "place_of_worship",
  "denomination" : "macedonian_orthodox",
  "religion" : "christian"
}, {
  "id" : "206265206",
  "name" : "Св. Илија",
  "name:en" : "St. Eliyah",
  "latitude" : "41.3416812",
  "longitude" : "21.3996227",
  "building" : "church",
  "amenity" : "place_of_worship",
  "denomination" : "macedonian_orthodox",
  "religion" : "christian"
}, {
  "id" : "206265206",
  "name" : "Св. Илија",
  "name:en" : "St. Eliyah",
  "latitude" : "41.3416812",
  "longitude" : "21.3996227",
  "building" : "church",
  "amenity" : "place_of_worship",
  "denomination" : "macedonian_orthodox",
  "religion" : "christian"
}, {
  "id" : "206265206",
  "name" : "Св. Илија",
  "name:en" : "St. Eliyah",
  "latitude" : "41.3416812",
  "longitude" : "21.3996227",
  "building" : "church",
  "amenity" : "place_of_worship",
  "denomination" : "macedonian_orthodox",
  "religion" : "christian"
}, {
  "id" : "206275424",
  "name" : "Св. Троица",
  "name:en" : "Holy Trinity",
  "addr:city" : "Крушево",
  "latitude" : "41.3651221",
  "longitude" : "21.2530069",
  "amenity" : "place_of_worship",
  "denomination" : "macedonian_orthodox",
  "religion" : "christian"
}, {
  "id" : "206275424",
  "name" : "Св. Троица",
  "name:en" : "Holy Trinity",
  "addr:city" : "Крушево",
  "latitude" : "41.3651221",
  "longitude" : "21.2530069",
  "amenity" : "place_of_worship",
  "denomination" : "macedonian_orthodox",
  "religion" : "christian"
}, {
  "id" : "206275424",
  "name" : "Св. Троица",
  "name:en" : "Holy Trinity",
  "addr:city" : "Крушево",
  "latitude" : "41.3651221",
  "longitude" : "21.2530069",
  "amenity" : "place_of_worship",
  "denomination" : "macedonian_orthodox",
  "religion" : "christian"
}, {
  "id" : "208711817",
  "name" : "11 Октомври 1941",
  "name:en" : "October the 11th, 1941",
  "latitude" : "41.34503",
  "longitude" : "21.5522424",
  "tourism" : "museum"
}, {
  "id" : "209067749",
  "name" : "Св. Димитриј Солунски",
  "name:en" : "St. Demetrius of Salonica",
  "latitude" : "41.3893465",
  "longitude" : "21.6425531",
  "building" : "church",
  "amenity" : "place_of_worship",
  "denomination" : "macedonian_orthodox",
  "religion" : "christian"
}, {
  "id" : "209067749",
  "name" : "Св. Димитриј Солунски",
  "name:en" : "St. Demetrius of Salonica",
  "latitude" : "41.3893465",
  "longitude" : "21.6425531",
  "building" : "church",
  "amenity" : "place_of_worship",
  "denomination" : "macedonian_orthodox",
  "religion" : "christian"
}, {
  "id" : "209067749",
  "name" : "Св. Димитриј Солунски",
  "name:en" : "St. Demetrius of Salonica",
  "latitude" : "41.3893465",
  "longitude" : "21.6425531",
  "building" : "church",
  "amenity" : "place_of_worship",
  "denomination" : "macedonian_orthodox",
  "religion" : "christian"
}, {
  "id" : "209067749",
  "name" : "Св. Димитриј Солунски",
  "name:en" : "St. Demetrius of Salonica",
  "latitude" : "41.3893465",
  "longitude" : "21.6425531",
  "building" : "church",
  "amenity" : "place_of_worship",
  "denomination" : "macedonian_orthodox",
  "religion" : "christian"
}, {
  "id" : "209092691",
  "name" : "Стоби",
  "name:en" : "Stobi",
  "phone" : "+389 75 210 752",
  "opening_hours" : "Mo-Sa 08:00-16:00",
  "latitude" : "41.5500415",
  "longitude" : "21.9755211",
  "historic" : "archaeological_site",
  "tourism" : "attraction"
}, {
  "id" : "209092691",
  "name" : "Стоби",
  "name:en" : "Stobi",
  "phone" : "+389 75 210 752",
  "opening_hours" : "Mo-Sa 08:00-16:00",
  "latitude" : "41.5500415",
  "longitude" : "21.9755211",
  "historic" : "archaeological_site",
  "tourism" : "attraction"
}, {
  "id" : "209557106",
  "name" : "Св. Димитриј Солунски",
  "name:en" : "St. Demetrius of Salonica",
  "latitude" : "41.3375634",
  "longitude" : "21.3287572",
  "building" : "church",
  "amenity" : "place_of_worship",
  "denomination" : "macedonian_orthodox",
  "religion" : "christian"
}, {
  "id" : "209557106",
  "name" : "Св. Димитриј Солунски",
  "name:en" : "St. Demetrius of Salonica",
  "latitude" : "41.3375634",
  "longitude" : "21.3287572",
  "building" : "church",
  "amenity" : "place_of_worship",
  "denomination" : "macedonian_orthodox",
  "religion" : "christian"
}, {
  "id" : "209557106",
  "name" : "Св. Димитриј Солунски",
  "name:en" : "St. Demetrius of Salonica",
  "latitude" : "41.3375634",
  "longitude" : "21.3287572",
  "building" : "church",
  "amenity" : "place_of_worship",
  "denomination" : "macedonian_orthodox",
  "religion" : "christian"
}, {
  "id" : "209557106",
  "name" : "Св. Димитриј Солунски",
  "name:en" : "St. Demetrius of Salonica",
  "latitude" : "41.3375634",
  "longitude" : "21.3287572",
  "building" : "church",
  "amenity" : "place_of_worship",
  "denomination" : "macedonian_orthodox",
  "religion" : "christian"
}, {
  "id" : "209649620",
  "name" : "Св. Теодор Тирон",
  "name:en" : "St. Theodor Thiron",
  "latitude" : "41.3358897",
  "longitude" : "21.335902",
  "building" : "church",
  "amenity" : "place_of_worship",
  "denomination" : "macedonian_orthodox",
  "religion" : "christian"
}, {
  "id" : "209649620",
  "name" : "Св. Теодор Тирон",
  "name:en" : "St. Theodor Thiron",
  "latitude" : "41.3358897",
  "longitude" : "21.335902",
  "building" : "church",
  "amenity" : "place_of_worship",
  "denomination" : "macedonian_orthodox",
  "religion" : "christian"
}, {
  "id" : "209649620",
  "name" : "Св. Теодор Тирон",
  "name:en" : "St. Theodor Thiron",
  "latitude" : "41.3358897",
  "longitude" : "21.335902",
  "building" : "church",
  "amenity" : "place_of_worship",
  "denomination" : "macedonian_orthodox",
  "religion" : "christian"
}, {
  "id" : "209649620",
  "name" : "Св. Теодор Тирон",
  "name:en" : "St. Theodor Thiron",
  "latitude" : "41.3358897",
  "longitude" : "21.335902",
  "building" : "church",
  "amenity" : "place_of_worship",
  "denomination" : "macedonian_orthodox",
  "religion" : "christian"
}, {
  "id" : "209649621",
  "name" : "Пресв. Богородица",
  "name:en" : "Holy Mother of God",
  "latitude" : "41.3354538",
  "longitude" : "21.3291938",
  "amenity" : "place_of_worship",
  "denomination" : "macedonian_orthodox",
  "religion" : "christian"
}, {
  "id" : "209649621",
  "name" : "Пресв. Богородица",
  "name:en" : "Holy Mother of God",
  "latitude" : "41.3354538",
  "longitude" : "21.3291938",
  "amenity" : "place_of_worship",
  "denomination" : "macedonian_orthodox",
  "religion" : "christian"
}, {
  "id" : "209649621",
  "name" : "Пресв. Богородица",
  "name:en" : "Holy Mother of God",
  "latitude" : "41.3354538",
  "longitude" : "21.3291938",
  "amenity" : "place_of_worship",
  "denomination" : "macedonian_orthodox",
  "religion" : "christian"
}, {
  "id" : "209650385",
  "name" : "Св. Николај",
  "name:en" : "St. Nicholas",
  "latitude" : "41.3336525",
  "longitude" : "21.3312995",
  "building" : "church",
  "amenity" : "place_of_worship",
  "denomination" : "macedonian_orthodox",
  "religion" : "christian"
}, {
  "id" : "209650385",
  "name" : "Св. Николај",
  "name:en" : "St. Nicholas",
  "latitude" : "41.3336525",
  "longitude" : "21.3312995",
  "building" : "church",
  "amenity" : "place_of_worship",
  "denomination" : "macedonian_orthodox",
  "religion" : "christian"
}, {
  "id" : "209650385",
  "name" : "Св. Николај",
  "name:en" : "St. Nicholas",
  "latitude" : "41.3336525",
  "longitude" : "21.3312995",
  "building" : "church",
  "amenity" : "place_of_worship",
  "denomination" : "macedonian_orthodox",
  "religion" : "christian"
}, {
  "id" : "209650385",
  "name" : "Св. Николај",
  "name:en" : "St. Nicholas",
  "latitude" : "41.3336525",
  "longitude" : "21.3312995",
  "building" : "church",
  "amenity" : "place_of_worship",
  "denomination" : "macedonian_orthodox",
  "religion" : "christian"
}, {
  "id" : "209834821",
  "name" : "Свети Никола",
  "name:en" : "Saint Nicholas",
  "latitude" : "41.2197429",
  "longitude" : "21.2105906",
  "building" : "church",
  "amenity" : "place_of_worship",
  "religion" : "christian"
}, {
  "id" : "209834821",
  "name" : "Свети Никола",
  "name:en" : "Saint Nicholas",
  "latitude" : "41.2197429",
  "longitude" : "21.2105906",
  "building" : "church",
  "amenity" : "place_of_worship",
  "religion" : "christian"
}, {
  "id" : "209834821",
  "name" : "Свети Никола",
  "name:en" : "Saint Nicholas",
  "latitude" : "41.2197429",
  "longitude" : "21.2105906",
  "building" : "church",
  "amenity" : "place_of_worship",
  "religion" : "christian"
}, {
  "id" : "210097532",
  "name" : "Преображение Христово",
  "latitude" : "41.6624994",
  "longitude" : "21.2200983",
  "building" : "church",
  "amenity" : "place_of_worship",
  "religion" : "christian"
}, {
  "id" : "210097532",
  "name" : "Преображение Христово",
  "latitude" : "41.6624994",
  "longitude" : "21.2200983",
  "building" : "church",
  "amenity" : "place_of_worship",
  "religion" : "christian"
}, {
  "id" : "210097532",
  "name" : "Преображение Христово",
  "latitude" : "41.6624994",
  "longitude" : "21.2200983",
  "building" : "church",
  "amenity" : "place_of_worship",
  "religion" : "christian"
}, {
  "id" : "210252893",
  "name" : "Пресвета Богородица",
  "name:en" : "Holy Mother",
  "latitude" : "41.030395",
  "longitude" : "21.3391579",
  "amenity" : "place_of_worship",
  "denomination" : "macedonian_orthodox",
  "religion" : "christian"
}, {
  "id" : "210252893",
  "name" : "Пресвета Богородица",
  "name:en" : "Holy Mother",
  "latitude" : "41.030395",
  "longitude" : "21.3391579",
  "amenity" : "place_of_worship",
  "denomination" : "macedonian_orthodox",
  "religion" : "christian"
}, {
  "id" : "210252893",
  "name" : "Пресвета Богородица",
  "name:en" : "Holy Mother",
  "latitude" : "41.030395",
  "longitude" : "21.3391579",
  "amenity" : "place_of_worship",
  "denomination" : "macedonian_orthodox",
  "religion" : "christian"
}, {
  "id" : "210253741",
  "name" : "Св. Недела",
  "name:en" : "St. Domenica",
  "latitude" : "41.0407027",
  "longitude" : "21.3489261",
  "building" : "church",
  "amenity" : "place_of_worship",
  "denomination" : "macedonian_orthodox",
  "religion" : "christian"
}, {
  "id" : "210253741",
  "name" : "Св. Недела",
  "name:en" : "St. Domenica",
  "latitude" : "41.0407027",
  "longitude" : "21.3489261",
  "building" : "church",
  "amenity" : "place_of_worship",
  "denomination" : "macedonian_orthodox",
  "religion" : "christian"
}, {
  "id" : "210253741",
  "name" : "Св. Недела",
  "name:en" : "St. Domenica",
  "latitude" : "41.0407027",
  "longitude" : "21.3489261",
  "building" : "church",
  "amenity" : "place_of_worship",
  "denomination" : "macedonian_orthodox",
  "religion" : "christian"
}, {
  "id" : "210253741",
  "name" : "Св. Недела",
  "name:en" : "St. Domenica",
  "latitude" : "41.0407027",
  "longitude" : "21.3489261",
  "building" : "church",
  "amenity" : "place_of_worship",
  "denomination" : "macedonian_orthodox",
  "religion" : "christian"
}, {
  "id" : "212404400",
  "name" : "Манастир Св. Архангел Михаил",
  "latitude" : "40.9700239",
  "longitude" : "21.6423476",
  "amenity" : "place_of_worship",
  "tourism" : "attraction",
  "religion" : "christian"
}, {
  "id" : "212404400",
  "name" : "Манастир Св. Архангел Михаил",
  "latitude" : "40.9700239",
  "longitude" : "21.6423476",
  "amenity" : "place_of_worship",
  "tourism" : "attraction",
  "religion" : "christian"
}, {
  "id" : "212404400",
  "name" : "Манастир Св. Архангел Михаил",
  "latitude" : "40.9700239",
  "longitude" : "21.6423476",
  "amenity" : "place_of_worship",
  "tourism" : "attraction",
  "religion" : "christian"
}, {
  "id" : "212703196",
  "name" : "Цареви Кули",
  "name:en" : "Czar’s Towers",
  "latitude" : "41.4326225",
  "longitude" : "22.6296717",
  "historic" : "archaeological_site",
  "tourism" : "attraction"
}, {
  "id" : "212703196",
  "name" : "Цареви Кули",
  "name:en" : "Czar’s Towers",
  "latitude" : "41.4326225",
  "longitude" : "22.6296717",
  "historic" : "archaeological_site",
  "tourism" : "attraction"
}, {
  "id" : "212703220",
  "name" : "Св. Илија",
  "name:en" : "St. Elijah",
  "latitude" : "41.4296682",
  "longitude" : "22.6130495",
  "amenity" : "place_of_worship",
  "tourism" : "attraction",
  "religion" : "christian"
}, {
  "id" : "212703220",
  "name" : "Св. Илија",
  "name:en" : "St. Elijah",
  "latitude" : "41.4296682",
  "longitude" : "22.6130495",
  "amenity" : "place_of_worship",
  "tourism" : "attraction",
  "religion" : "christian"
}, {
  "id" : "212703220",
  "name" : "Св. Илија",
  "name:en" : "St. Elijah",
  "latitude" : "41.4296682",
  "longitude" : "22.6130495",
  "amenity" : "place_of_worship",
  "tourism" : "attraction",
  "religion" : "christian"
}, {
  "id" : "216591495",
  "name" : "Св. Константин и Елена",
  "name:en" : "Sts. Constantine and Helena",
  "latitude" : "41.2649846",
  "longitude" : "21.437548",
  "building" : "church",
  "amenity" : "place_of_worship",
  "denomination" : "macedonian_orthodox",
  "religion" : "christian"
}, {
  "id" : "216591495",
  "name" : "Св. Константин и Елена",
  "name:en" : "Sts. Constantine and Helena",
  "latitude" : "41.2649846",
  "longitude" : "21.437548",
  "building" : "church",
  "amenity" : "place_of_worship",
  "denomination" : "macedonian_orthodox",
  "religion" : "christian"
}, {
  "id" : "216591495",
  "name" : "Св. Константин и Елена",
  "name:en" : "Sts. Constantine and Helena",
  "latitude" : "41.2649846",
  "longitude" : "21.437548",
  "building" : "church",
  "amenity" : "place_of_worship",
  "denomination" : "macedonian_orthodox",
  "religion" : "christian"
}, {
  "id" : "216591495",
  "name" : "Св. Константин и Елена",
  "name:en" : "Sts. Constantine and Helena",
  "latitude" : "41.2649846",
  "longitude" : "21.437548",
  "building" : "church",
  "amenity" : "place_of_worship",
  "denomination" : "macedonian_orthodox",
  "religion" : "christian"
}, {
  "id" : "217452210",
  "name" : "Св. Петка",
  "name:en" : "St. Parascheva",
  "latitude" : "41.3650976",
  "longitude" : "21.2415612",
  "building" : "church",
  "amenity" : "place_of_worship",
  "denomination" : "macedonian_orthodox",
  "religion" : "christian"
}, {
  "id" : "217452210",
  "name" : "Св. Петка",
  "name:en" : "St. Parascheva",
  "latitude" : "41.3650976",
  "longitude" : "21.2415612",
  "building" : "church",
  "amenity" : "place_of_worship",
  "denomination" : "macedonian_orthodox",
  "religion" : "christian"
}, {
  "id" : "217452210",
  "name" : "Св. Петка",
  "name:en" : "St. Parascheva",
  "latitude" : "41.3650976",
  "longitude" : "21.2415612",
  "building" : "church",
  "amenity" : "place_of_worship",
  "denomination" : "macedonian_orthodox",
  "religion" : "christian"
}, {
  "id" : "217452210",
  "name" : "Св. Петка",
  "name:en" : "St. Parascheva",
  "latitude" : "41.3650976",
  "longitude" : "21.2415612",
  "building" : "church",
  "amenity" : "place_of_worship",
  "denomination" : "macedonian_orthodox",
  "religion" : "christian"
}, {
  "id" : "217467174",
  "name" : "Никола Мартиноски",
  "name:en" : "Nikola Martinoski",
  "latitude" : "41.3689154",
  "longitude" : "21.2522016",
  "tourism" : "gallery"
}, {
  "id" : "217561610",
  "name" : "Музеј на НОВ",
  "latitude" : "41.3757107",
  "longitude" : "21.2457177",
  "tourism" : "museum"
}, {
  "id" : "217563724",
  "name" : "Спомен куќа Тоше Проески",
  "latitude" : "41.3743763",
  "longitude" : "21.2460773",
  "historic" : "memorial"
}, {
  "id" : "217568679",
  "name" : "Македониум",
  "latitude" : "41.3775293",
  "longitude" : "21.248402",
  "historic" : "monument",
  "tourism" : "museum"
}, {
  "id" : "217568679",
  "name" : "Македониум",
  "latitude" : "41.3775293",
  "longitude" : "21.248402",
  "historic" : "monument",
  "tourism" : "museum"
}, {
  "id" : "217836998",
  "name" : "Базилика \"Свети Еразмо\"",
  "latitude" : "41.140609",
  "longitude" : "20.7635431",
  "historic" : "ruins"
}, {
  "id" : "217849357",
  "name" : "Манастир „Свети Наум",
  "name:en" : "The Monastery of Saint Naum",
  "latitude" : "40.9140882",
  "longitude" : "20.7404917",
  "historic" : "monastery"
}, {
  "id" : "217931793",
  "name" : "Залив на Коските",
  "name:en" : "Bay of Bones",
  "opening_hours" : "Tu-Su 09:00-16:15",
  "latitude" : "40.9946609",
  "longitude" : "20.7979124",
  "tourism" : "museum",
  "tourism_1" : "attraction"
}, {
  "id" : "219775049",
  "name" : "Света Богородица",
  "name:en" : "Saint The Mother of God",
  "latitude" : "40.910244",
  "longitude" : "20.7452763",
  "amenity" : "place_of_worship",
  "tourism" : "attraction",
  "religion" : "christian"
}, {
  "id" : "219775049",
  "name" : "Света Богородица",
  "name:en" : "Saint The Mother of God",
  "latitude" : "40.910244",
  "longitude" : "20.7452763",
  "amenity" : "place_of_worship",
  "tourism" : "attraction",
  "religion" : "christian"
}, {
  "id" : "219775049",
  "name" : "Света Богородица",
  "name:en" : "Saint The Mother of God",
  "latitude" : "40.910244",
  "longitude" : "20.7452763",
  "amenity" : "place_of_worship",
  "tourism" : "attraction",
  "religion" : "christian"
}, {
  "id" : "219789600",
  "name" : "Свети Атанасиј",
  "name:en" : "Saint Athanasius",
  "latitude" : "40.911393",
  "longitude" : "20.7492303",
  "building" : "church",
  "amenity" : "place_of_worship"
}, {
  "id" : "219789600",
  "name" : "Свети Атанасиј",
  "name:en" : "Saint Athanasius",
  "latitude" : "40.911393",
  "longitude" : "20.7492303",
  "building" : "church",
  "amenity" : "place_of_worship"
}, {
  "id" : "219799845",
  "name" : "Свети Илија",
  "latitude" : "40.8783463",
  "longitude" : "21.3579069",
  "amenity" : "place_of_worship",
  "religion" : "christian"
}, {
  "id" : "219799845",
  "name" : "Свети Илија",
  "latitude" : "40.8783463",
  "longitude" : "21.3579069",
  "amenity" : "place_of_worship",
  "religion" : "christian"
}, {
  "id" : "219827428",
  "name" : "Остречка Џамија",
  "latitude" : "40.9295187",
  "longitude" : "21.2994692",
  "amenity" : "place_of_worship"
}, {
  "id" : "220089578",
  "name" : "Чарши Џамија",
  "name:en" : "Charshi Mosque",
  "latitude" : "41.3454049",
  "longitude" : "21.5553254",
  "amenity" : "place_of_worship"
}, {
  "id" : "220246861",
  "name" : "Св. Јован Крстител",
  "name:en" : "St. John the Baptist",
  "latitude" : "41.4614467",
  "longitude" : "21.5704026",
  "amenity" : "place_of_worship",
  "religion" : "christian"
}, {
  "id" : "220246861",
  "name" : "Св. Јован Крстител",
  "name:en" : "St. John the Baptist",
  "latitude" : "41.4614467",
  "longitude" : "21.5704026",
  "amenity" : "place_of_worship",
  "religion" : "christian"
}, {
  "id" : "222662720",
  "name" : "Metropolis Beach",
  "latitude" : "41.0791672",
  "longitude" : "20.7995331",
  "tourism" : "attraction"
}, {
  "id" : "222848320",
  "name" : "Крушевски Манастир",
  "name:en" : "Monastery of Krushevo",
  "latitude" : "41.3566728",
  "longitude" : "21.266672",
  "denomination" : "macedonian_orthodox",
  "religion" : "christian"
}, {
  "id" : "222848320",
  "name" : "Крушевски Манастир",
  "name:en" : "Monastery of Krushevo",
  "latitude" : "41.3566728",
  "longitude" : "21.266672",
  "denomination" : "macedonian_orthodox",
  "religion" : "christian"
}, {
  "id" : "223008200",
  "name" : "Кале",
  "latitude" : "41.2574154",
  "longitude" : "21.3140441",
  "historic" : "archaeological_site"
}, {
  "id" : "223427542",
  "name" : "Св. Петар и Павле",
  "name:en" : "St. Peter and Paul",
  "latitude" : "42.0092594",
  "longitude" : "21.3618767",
  "building" : "church",
  "amenity" : "place_of_worship",
  "religion" : "christian"
}, {
  "id" : "223427542",
  "name" : "Св. Петар и Павле",
  "name:en" : "St. Peter and Paul",
  "latitude" : "42.0092594",
  "longitude" : "21.3618767",
  "building" : "church",
  "amenity" : "place_of_worship",
  "religion" : "christian"
}, {
  "id" : "223427542",
  "name" : "Св. Петар и Павле",
  "name:en" : "St. Peter and Paul",
  "latitude" : "42.0092594",
  "longitude" : "21.3618767",
  "building" : "church",
  "amenity" : "place_of_worship",
  "religion" : "christian"
}, {
  "id" : "223539604",
  "name" : "Св. Злата Мегленска",
  "latitude" : "42.0040936",
  "longitude" : "21.3328586",
  "building" : "church",
  "amenity" : "place_of_worship",
  "religion" : "christian"
}, {
  "id" : "223539604",
  "name" : "Св. Злата Мегленска",
  "latitude" : "42.0040936",
  "longitude" : "21.3328586",
  "building" : "church",
  "amenity" : "place_of_worship",
  "religion" : "christian"
}, {
  "id" : "223539604",
  "name" : "Св. Злата Мегленска",
  "latitude" : "42.0040936",
  "longitude" : "21.3328586",
  "building" : "church",
  "amenity" : "place_of_worship",
  "religion" : "christian"
}, {
  "id" : "223556985",
  "name" : "Husein Shah",
  "latitude" : "42.0018102",
  "longitude" : "21.3310723",
  "amenity" : "place_of_worship"
}, {
  "id" : "223869150",
  "name" : "Св. Спас",
  "name:en" : "Church of the Holy Savior",
  "addr:city" : "Орман",
  "latitude" : "42.0700853",
  "longitude" : "21.3556185",
  "amenity" : "place_of_worship",
  "religion" : "christian"
}, {
  "id" : "223869150",
  "name" : "Св. Спас",
  "name:en" : "Church of the Holy Savior",
  "addr:city" : "Орман",
  "latitude" : "42.0700853",
  "longitude" : "21.3556185",
  "amenity" : "place_of_worship",
  "religion" : "christian"
}, {
  "id" : "223970616",
  "name" : "Св. Јован Крстител",
  "name:en" : "St. John The Baptist",
  "latitude" : "41.3695959",
  "longitude" : "21.2493786",
  "amenity" : "place_of_worship",
  "religion" : "christian"
}, {
  "id" : "223970616",
  "name" : "Св. Јован Крстител",
  "name:en" : "St. John The Baptist",
  "latitude" : "41.3695959",
  "longitude" : "21.2493786",
  "amenity" : "place_of_worship",
  "religion" : "christian"
}, {
  "id" : "224099193",
  "name" : "Црвка Свети Никола",
  "name:en" : "Church of Saint Nicholas",
  "latitude" : "41.3684197",
  "longitude" : "21.2489142",
  "amenity" : "place_of_worship",
  "religion" : "christian"
}, {
  "id" : "224099193",
  "name" : "Црвка Свети Никола",
  "name:en" : "Church of Saint Nicholas",
  "latitude" : "41.3684197",
  "longitude" : "21.2489142",
  "amenity" : "place_of_worship",
  "religion" : "christian"
}, {
  "id" : "224113828",
  "name" : "Успение на Пресвета Богородица",
  "name:en" : "Assumption of the Most Holy Mother of God",
  "addr:city" : "Крушево",
  "phone" : "+38977790350;+38971323173",
  "latitude" : "41.3697596",
  "longitude" : "21.2462787",
  "amenity" : "place_of_worship",
  "religion" : "christian"
}, {
  "id" : "224113828",
  "name" : "Успение на Пресвета Богородица",
  "name:en" : "Assumption of the Most Holy Mother of God",
  "addr:city" : "Крушево",
  "phone" : "+38977790350;+38971323173",
  "latitude" : "41.3697596",
  "longitude" : "21.2462787",
  "amenity" : "place_of_worship",
  "religion" : "christian"
}, {
  "id" : "224254694",
  "name" : "Музеј на Илинденското востание и Крушевската Република",
  "name:en" : "Museum of the Ilinden Uprising and the Republic of Krushevo",
  "addr:city" : "Крушево",
  "phone" : "+38970619597;+38970356621",
  "latitude" : "41.3691154",
  "longitude" : "21.2452388",
  "tourism" : "museum"
}, {
  "id" : "224479816",
  "name" : "Манастир Св. Илија",
  "name:en" : "Monastery St. Elijah",
  "latitude" : "42.1299955",
  "longitude" : "21.3872656",
  "amenity" : "place_of_worship",
  "tourism" : "attraction",
  "religion" : "christian"
}, {
  "id" : "224479816",
  "name" : "Манастир Св. Илија",
  "name:en" : "Monastery St. Elijah",
  "latitude" : "42.1299955",
  "longitude" : "21.3872656",
  "amenity" : "place_of_worship",
  "tourism" : "attraction",
  "religion" : "christian"
}, {
  "id" : "224479816",
  "name" : "Манастир Св. Илија",
  "name:en" : "Monastery St. Elijah",
  "latitude" : "42.1299955",
  "longitude" : "21.3872656",
  "amenity" : "place_of_worship",
  "tourism" : "attraction",
  "religion" : "christian"
}, {
  "id" : "224656219",
  "name" : "Манастир Св. Христофор",
  "name:en" : "Monastery St. Christopher",
  "latitude" : "40.9887262",
  "longitude" : "21.3410819",
  "amenity" : "place_of_worship",
  "tourism" : "attraction"
}, {
  "id" : "224656219",
  "name" : "Манастир Св. Христофор",
  "name:en" : "Monastery St. Christopher",
  "latitude" : "40.9887262",
  "longitude" : "21.3410819",
  "amenity" : "place_of_worship",
  "tourism" : "attraction"
}, {
  "id" : "224671004",
  "name" : "Св. Еремија",
  "latitude" : "41.945457",
  "longitude" : "21.4836224",
  "amenity" : "place_of_worship",
  "religion" : "christian"
}, {
  "id" : "224671004",
  "name" : "Св. Еремија",
  "latitude" : "41.945457",
  "longitude" : "21.4836224",
  "amenity" : "place_of_worship",
  "religion" : "christian"
}, {
  "id" : "226160304",
  "name" : "Roman Theater of Heraclea Lyncestis",
  "name:en" : "Roman Theater of Heraclea Lyncestis",
  "latitude" : "41.0114511",
  "longitude" : "21.3425547",
  "historic" : "ruins"
}, {
  "id" : "226161294",
  "name" : "Антички театар",
  "name:en" : "ancient theater of Stobi",
  "latitude" : "41.5515315",
  "longitude" : "21.9752721",
  "historic" : "ruins"
}, {
  "id" : "227215120",
  "name" : "Sulltan Bejazit",
  "latitude" : "41.5145614",
  "longitude" : "20.9630497",
  "amenity" : "place_of_worship"
}, {
  "id" : "227295208",
  "name" : "Камена",
  "name:en" : "Kamena",
  "latitude" : "41.478356",
  "longitude" : "21.3142734",
  "amenity" : "place_of_worship"
}, {
  "id" : "227433408",
  "name" : "Вардарски Рид",
  "name:en" : "Vardar Hill",
  "latitude" : "41.1493831",
  "longitude" : "22.5215329",
  "historic" : "archaeological_site",
  "tourism" : "attraction"
}, {
  "id" : "227433408",
  "name" : "Вардарски Рид",
  "name:en" : "Vardar Hill",
  "latitude" : "41.1493831",
  "longitude" : "22.5215329",
  "historic" : "archaeological_site",
  "tourism" : "attraction"
}, {
  "id" : "227918811",
  "name" : "Бигорски Манастир",
  "name:en" : "Bigorski Monastery",
  "latitude" : "41.6216704",
  "longitude" : "20.6089946",
  "tourism" : "attraction",
  "religion" : "christian"
}, {
  "id" : "227918811",
  "name" : "Бигорски Манастир",
  "name:en" : "Bigorski Monastery",
  "latitude" : "41.6216704",
  "longitude" : "20.6089946",
  "tourism" : "attraction",
  "religion" : "christian"
}, {
  "id" : "227939343",
  "name" : "Црква Св. Кузман и Дамјан - Триангла",
  "latitude" : "41.9988564",
  "longitude" : "21.4923594",
  "amenity" : "place_of_worship",
  "religion" : "christian"
}, {
  "id" : "227939343",
  "name" : "Црква Св. Кузман и Дамјан - Триангла",
  "latitude" : "41.9988564",
  "longitude" : "21.4923594",
  "amenity" : "place_of_worship",
  "religion" : "christian"
}, {
  "id" : "228209293",
  "name" : "Вевчански Извори",
  "name:en" : "Vevchani Springs",
  "latitude" : "41.2396675",
  "longitude" : "20.5848529",
  "tourism" : "attraction"
}, {
  "id" : "229632394",
  "name" : "Isar-Marvinci",
  "latitude" : "41.2780309",
  "longitude" : "22.4935572",
  "historic" : "archaeological_site"
}, {
  "id" : "229930502",
  "name" : "Археолошки музеј на Македонија",
  "name:en" : "Archaeological Museum of Macedonia",
  "addr:city" : "Cкoпje",
  "addr:city:en" : "Skopje",
  "opening_hours" : "Tu-Su 10:00-18:00",
  "latitude" : "41.9970517",
  "longitude" : "21.4340186",
  "tourism" : "museum"
}, {
  "id" : "229939246",
  "name" : "Милениумски крст",
  "name:en" : "Millennium Cross",
  "latitude" : "41.965077",
  "longitude" : "21.3943447",
  "tourism" : "attraction"
}, {
  "id" : "230351059",
  "name" : "Св. Атанас",
  "latitude" : "41.9712482",
  "longitude" : "21.3100148",
  "building" : "church",
  "amenity" : "place_of_worship",
  "religion" : "christian"
}, {
  "id" : "230351059",
  "name" : "Св. Атанас",
  "latitude" : "41.9712482",
  "longitude" : "21.3100148",
  "building" : "church",
  "amenity" : "place_of_worship",
  "religion" : "christian"
}, {
  "id" : "230351059",
  "name" : "Св. Атанас",
  "latitude" : "41.9712482",
  "longitude" : "21.3100148",
  "building" : "church",
  "amenity" : "place_of_worship",
  "religion" : "christian"
}, {
  "id" : "231344771",
  "name" : "Тумба Маџари",
  "name:en" : "Tumba Madzhari",
  "latitude" : "42.0017126",
  "longitude" : "21.5048038",
  "historic" : "archaeological_site",
  "tourism" : "attraction"
}, {
  "id" : "231344771",
  "name" : "Тумба Маџари",
  "name:en" : "Tumba Madzhari",
  "latitude" : "42.0017126",
  "longitude" : "21.5048038",
  "historic" : "archaeological_site",
  "tourism" : "attraction"
}, {
  "id" : "232843018",
  "name" : "Маркови Кули",
  "name:en" : "Markovi Kuli",
  "latitude" : "41.8381428",
  "longitude" : "21.6990121",
  "historic" : "castle",
  "tourism" : "attraction"
}, {
  "id" : "232843018",
  "name" : "Маркови Кули",
  "name:en" : "Markovi Kuli",
  "latitude" : "41.8381428",
  "longitude" : "21.6990121",
  "historic" : "castle",
  "tourism" : "attraction"
}, {
  "id" : "233274323",
  "name" : "Македонска православна црква – Охридска архиепископија",
  "name:en" : "Macedonian Orthodox Church – Ohrid Archbishopric",
  "latitude" : "41.1139618",
  "longitude" : "20.7957467",
  "religion" : "christian"
}, {
  "id" : "233274330",
  "name" : "Св. Јован Канео",
  "name:en" : "St. John Kaneo",
  "latitude" : "41.1111762",
  "longitude" : "20.7886328",
  "building" : "church",
  "amenity" : "place_of_worship",
  "religion" : "christian"
}, {
  "id" : "233274330",
  "name" : "Св. Јован Канео",
  "name:en" : "St. John Kaneo",
  "latitude" : "41.1111762",
  "longitude" : "20.7886328",
  "building" : "church",
  "amenity" : "place_of_worship",
  "religion" : "christian"
}, {
  "id" : "233274330",
  "name" : "Св. Јован Канео",
  "name:en" : "St. John Kaneo",
  "latitude" : "41.1111762",
  "longitude" : "20.7886328",
  "building" : "church",
  "amenity" : "place_of_worship",
  "religion" : "christian"
}, {
  "id" : "235728306",
  "name" : "Пештерна Црква \"Св. Богородица\" - Калишта",
  "name:en" : "Cave Church \"Holy Mother of God\" - Kalishta",
  "latitude" : "41.1447305",
  "longitude" : "20.650194",
  "building" : "church",
  "amenity" : "place_of_worship",
  "religion" : "christian"
}, {
  "id" : "235728306",
  "name" : "Пештерна Црква \"Св. Богородица\" - Калишта",
  "name:en" : "Cave Church \"Holy Mother of God\" - Kalishta",
  "latitude" : "41.1447305",
  "longitude" : "20.650194",
  "building" : "church",
  "amenity" : "place_of_worship",
  "religion" : "christian"
}, {
  "id" : "235728306",
  "name" : "Пештерна Црква \"Св. Богородица\" - Калишта",
  "name:en" : "Cave Church \"Holy Mother of God\" - Kalishta",
  "latitude" : "41.1447305",
  "longitude" : "20.650194",
  "building" : "church",
  "amenity" : "place_of_worship",
  "religion" : "christian"
}, {
  "id" : "236587123",
  "name" : "Св. Преображение",
  "name:en" : "Holy Tranfiguration",
  "latitude" : "41.3883778",
  "longitude" : "20.656571",
  "building" : "church",
  "amenity" : "place_of_worship",
  "denomination" : "macedonian_orthodox",
  "religion" : "christian"
}, {
  "id" : "236587123",
  "name" : "Св. Преображение",
  "name:en" : "Holy Tranfiguration",
  "latitude" : "41.3883778",
  "longitude" : "20.656571",
  "building" : "church",
  "amenity" : "place_of_worship",
  "denomination" : "macedonian_orthodox",
  "religion" : "christian"
}, {
  "id" : "236587123",
  "name" : "Св. Преображение",
  "name:en" : "Holy Tranfiguration",
  "latitude" : "41.3883778",
  "longitude" : "20.656571",
  "building" : "church",
  "amenity" : "place_of_worship",
  "denomination" : "macedonian_orthodox",
  "religion" : "christian"
}, {
  "id" : "236587123",
  "name" : "Св. Преображение",
  "name:en" : "Holy Tranfiguration",
  "latitude" : "41.3883778",
  "longitude" : "20.656571",
  "building" : "church",
  "amenity" : "place_of_worship",
  "denomination" : "macedonian_orthodox",
  "religion" : "christian"
}, {
  "id" : "239422349",
  "name" : "Порта Македонија",
  "name:en" : "Porta Macedonia",
  "addr:city" : "Cкoпje",
  "addr:city:en" : "Skopje",
  "phone" : "+389 2 3151141",
  "latitude" : "41.9944587",
  "longitude" : "21.4322421",
  "historic" : "monument"
}, {
  "id" : "240346454",
  "name" : "Градиште",
  "name:en" : "Gradishte",
  "latitude" : "41.2404842",
  "longitude" : "21.217376",
  "historic" : "archaeological_site"
}, {
  "id" : "240622276",
  "name" : "Св. Никола",
  "name:en" : "St. Nicholas",
  "latitude" : "41.2486746",
  "longitude" : "21.3947772",
  "amenity" : "place_of_worship",
  "religion" : "christian"
}, {
  "id" : "240622276",
  "name" : "Св. Никола",
  "name:en" : "St. Nicholas",
  "latitude" : "41.2486746",
  "longitude" : "21.3947772",
  "amenity" : "place_of_worship",
  "religion" : "christian"
}, {
  "id" : "240622723",
  "name" : "Стибера",
  "latitude" : "41.2442547",
  "longitude" : "21.3984167",
  "historic" : "archaeological_site"
}, {
  "id" : "241085465",
  "name" : "Шарена Џамија",
  "name:en" : "Pasha's Mosque",
  "addr:city" : "Tetovo",
  "opening_hours" : "24/7",
  "latitude" : "42.0058475",
  "longitude" : "20.9667672",
  "historic" : "yes",
  "amenity" : "place_of_worship",
  "tourism" : "attraction"
}, {
  "id" : "241085465",
  "name" : "Шарена Џамија",
  "name:en" : "Pasha's Mosque",
  "addr:city" : "Tetovo",
  "opening_hours" : "24/7",
  "latitude" : "42.0058475",
  "longitude" : "20.9667672",
  "historic" : "yes",
  "amenity" : "place_of_worship",
  "tourism" : "attraction"
}, {
  "id" : "241085465",
  "name" : "Шарена Џамија",
  "name:en" : "Pasha's Mosque",
  "addr:city" : "Tetovo",
  "opening_hours" : "24/7",
  "latitude" : "42.0058475",
  "longitude" : "20.9667672",
  "historic" : "yes",
  "amenity" : "place_of_worship",
  "tourism" : "attraction"
}, {
  "id" : "241887626",
  "name" : "ana",
  "latitude" : "41.0283462",
  "longitude" : "21.1143852",
  "amenity" : "place_of_worship"
}, {
  "id" : "243981081",
  "name" : "Стибера",
  "name:en" : "Stibera",
  "latitude" : "41.2441541",
  "longitude" : "21.3974596",
  "historic" : "archaeological_site"
}, {
  "id" : "244812164",
  "name" : "Ел Калем",
  "latitude" : "41.987037",
  "longitude" : "21.287509",
  "tourism" : "museum"
}, {
  "id" : "246171790",
  "name" : "Црква \"Пресвета Богородица\"",
  "name:en" : "Church \"Тhe Blessed Mother of God\"",
  "latitude" : "41.7932548",
  "longitude" : "20.9108785",
  "amenity" : "place_of_worship",
  "religion" : "christian"
}, {
  "id" : "246171790",
  "name" : "Црква \"Пресвета Богородица\"",
  "name:en" : "Church \"Тhe Blessed Mother of God\"",
  "latitude" : "41.7932548",
  "longitude" : "20.9108785",
  "amenity" : "place_of_worship",
  "religion" : "christian"
}, {
  "id" : "247817665",
  "name" : "Св.Спас",
  "name:en" : "Holy Saviour Church",
  "latitude" : "41.9350625",
  "longitude" : "21.5176547",
  "building" : "church",
  "amenity" : "place_of_worship",
  "religion" : "christian"
}, {
  "id" : "247817665",
  "name" : "Св.Спас",
  "name:en" : "Holy Saviour Church",
  "latitude" : "41.9350625",
  "longitude" : "21.5176547",
  "building" : "church",
  "amenity" : "place_of_worship",
  "religion" : "christian"
}, {
  "id" : "247817665",
  "name" : "Св.Спас",
  "name:en" : "Holy Saviour Church",
  "latitude" : "41.9350625",
  "longitude" : "21.5176547",
  "building" : "church",
  "amenity" : "place_of_worship",
  "religion" : "christian"
}, {
  "id" : "248662336",
  "name" : "Црква „Св. Григориј Палама и Димитриј“",
  "latitude" : "41.4369344",
  "longitude" : "22.6440058",
  "building" : "church",
  "amenity" : "place_of_worship",
  "religion" : "christian"
}, {
  "id" : "248662336",
  "name" : "Црква „Св. Григориј Палама и Димитриј“",
  "latitude" : "41.4369344",
  "longitude" : "22.6440058",
  "building" : "church",
  "amenity" : "place_of_worship",
  "religion" : "christian"
}, {
  "id" : "248662336",
  "name" : "Црква „Св. Григориј Палама и Димитриј“",
  "latitude" : "41.4369344",
  "longitude" : "22.6440058",
  "building" : "church",
  "amenity" : "place_of_worship",
  "religion" : "christian"
}, {
  "id" : "264336638",
  "name" : "Џамија Центар Жировница",
  "name:en" : "Mosque Center",
  "latitude" : "41.6737826",
  "longitude" : "20.585904",
  "amenity" : "place_of_worship"
}, {
  "id" : "265053393",
  "name" : "Саат Џамија;Bey Mahala",
  "name:en" : "The Clock Mosque",
  "latitude" : "41.7951304",
  "longitude" : "20.9109599",
  "amenity" : "place_of_worship"
}, {
  "id" : "266298277",
  "name" : "Dzamija Dolno Maalo",
  "latitude" : "41.6737698",
  "longitude" : "20.5907462",
  "amenity" : "place_of_worship"
}, {
  "id" : "266298397",
  "name" : "Dzamija Gorno Maalo",
  "latitude" : "41.6760709",
  "longitude" : "20.5838882",
  "amenity" : "place_of_worship"
}, {
  "id" : "266824490",
  "name" : "Црква \"Свети Ѓорѓија\"",
  "name:en" : "Church \"Saint George\"",
  "latitude" : "41.7920402",
  "longitude" : "20.8779475",
  "amenity" : "place_of_worship",
  "religion" : "christian"
}, {
  "id" : "266824490",
  "name" : "Црква \"Свети Ѓорѓија\"",
  "name:en" : "Church \"Saint George\"",
  "latitude" : "41.7920402",
  "longitude" : "20.8779475",
  "amenity" : "place_of_worship",
  "religion" : "christian"
}, {
  "id" : "267077609",
  "name" : "Црква \"Свети Ѓорѓија\"",
  "name:en" : "Chirch \"Saint George\"",
  "latitude" : "41.81856",
  "longitude" : "20.8767101",
  "amenity" : "place_of_worship",
  "religion" : "christian"
}, {
  "id" : "267077609",
  "name" : "Црква \"Свети Ѓорѓија\"",
  "name:en" : "Chirch \"Saint George\"",
  "latitude" : "41.81856",
  "longitude" : "20.8767101",
  "amenity" : "place_of_worship",
  "religion" : "christian"
}, {
  "id" : "267214771",
  "name" : "Xhamia e Kadrit",
  "latitude" : "41.7942753",
  "longitude" : "20.8933926",
  "amenity" : "place_of_worship"
}, {
  "id" : "268394494",
  "name" : "Црква \"Свети Никола\"",
  "name:en" : "\"Saint Nicolas\" Church",
  "latitude" : "41.7580574",
  "longitude" : "20.8787335",
  "amenity" : "place_of_worship",
  "religion" : "christian"
}, {
  "id" : "268394494",
  "name" : "Црква \"Свети Никола\"",
  "name:en" : "\"Saint Nicolas\" Church",
  "latitude" : "41.7580574",
  "longitude" : "20.8787335",
  "amenity" : "place_of_worship",
  "religion" : "christian"
}, {
  "id" : "268599233",
  "name" : "Црква \"Св. Јован Крстител\"",
  "name:en" : "\"John the Baptist\" Church",
  "latitude" : "41.7333058",
  "longitude" : "20.828356",
  "amenity" : "place_of_worship",
  "religion" : "christian"
}, {
  "id" : "268599233",
  "name" : "Црква \"Св. Јован Крстител\"",
  "name:en" : "\"John the Baptist\" Church",
  "latitude" : "41.7333058",
  "longitude" : "20.828356",
  "amenity" : "place_of_worship",
  "religion" : "christian"
}, {
  "id" : "268599844",
  "name" : "Црква \"Св. Никола\"",
  "name:en" : "\"Saint Nicolas\" Church",
  "latitude" : "41.7218639",
  "longitude" : "20.8446443",
  "amenity" : "place_of_worship",
  "religion" : "christian"
}, {
  "id" : "268599844",
  "name" : "Црква \"Св. Никола\"",
  "name:en" : "\"Saint Nicolas\" Church",
  "latitude" : "41.7218639",
  "longitude" : "20.8446443",
  "amenity" : "place_of_worship",
  "religion" : "christian"
}, {
  "id" : "268599845",
  "name" : "Црква \"Св. Богородица\"",
  "name:en" : "\"Saint Mother of God\" Church",
  "latitude" : "41.7045076",
  "longitude" : "20.8443823",
  "amenity" : "place_of_worship",
  "religion" : "christian"
}, {
  "id" : "268599845",
  "name" : "Црква \"Св. Богородица\"",
  "name:en" : "\"Saint Mother of God\" Church",
  "latitude" : "41.7045076",
  "longitude" : "20.8443823",
  "amenity" : "place_of_worship",
  "religion" : "christian"
}, {
  "id" : "269914945",
  "name" : "Црква Св. Атанасиј",
  "latitude" : "41.966404",
  "longitude" : "20.9812813",
  "amenity" : "place_of_worship",
  "religion" : "christian"
}, {
  "id" : "269914945",
  "name" : "Црква Св. Атанасиј",
  "latitude" : "41.966404",
  "longitude" : "20.9812813",
  "amenity" : "place_of_worship",
  "religion" : "christian"
}, {
  "id" : "270207216",
  "name" : "Црква Свети Никола - Геракомија",
  "name:en" : "Church of St. Nicholas - Gerakomija",
  "latitude" : "41.1122949",
  "longitude" : "20.7947761",
  "amenity" : "place_of_worship",
  "religion" : "christian"
}, {
  "id" : "270207216",
  "name" : "Црква Свети Никола - Геракомија",
  "name:en" : "Church of St. Nicholas - Gerakomija",
  "latitude" : "41.1122949",
  "longitude" : "20.7947761",
  "amenity" : "place_of_worship",
  "religion" : "christian"
}, {
  "id" : "271750851",
  "name" : "Св. Спас",
  "latitude" : "41.7069248",
  "longitude" : "21.789099",
  "building" : "church",
  "amenity" : "place_of_worship",
  "religion" : "christian"
}, {
  "id" : "271750851",
  "name" : "Св. Спас",
  "latitude" : "41.7069248",
  "longitude" : "21.789099",
  "building" : "church",
  "amenity" : "place_of_worship",
  "religion" : "christian"
}, {
  "id" : "271750851",
  "name" : "Св. Спас",
  "latitude" : "41.7069248",
  "longitude" : "21.789099",
  "building" : "church",
  "amenity" : "place_of_worship",
  "religion" : "christian"
}, {
  "id" : "277527235",
  "name" : "Св. Атанасиј",
  "latitude" : "41.3804097",
  "longitude" : "21.4116411",
  "amenity" : "place_of_worship",
  "denomination" : "macedonian_orthodox",
  "religion" : "christian"
}, {
  "id" : "277527235",
  "name" : "Св. Атанасиј",
  "latitude" : "41.3804097",
  "longitude" : "21.4116411",
  "amenity" : "place_of_worship",
  "denomination" : "macedonian_orthodox",
  "religion" : "christian"
}, {
  "id" : "277527235",
  "name" : "Св. Атанасиј",
  "latitude" : "41.3804097",
  "longitude" : "21.4116411",
  "amenity" : "place_of_worship",
  "denomination" : "macedonian_orthodox",
  "religion" : "christian"
}, {
  "id" : "288270474",
  "name" : "Xhamia e Loke",
  "latitude" : "41.8345582",
  "longitude" : "20.9704884",
  "amenity" : "place_of_worship"
}, {
  "id" : "288270528",
  "name" : "Xhamia në dalje të Çegranit",
  "latitude" : "41.845571",
  "longitude" : "20.9785624",
  "amenity" : "place_of_worship"
}, {
  "id" : "295526113",
  "name" : "Араста-џамија",
  "name:en" : "Arasta Mosque",
  "addr:city" : "Cкoпje",
  "addr:city:en" : "Skopje",
  "latitude" : "42.00191",
  "longitude" : "21.4370676",
  "amenity" : "place_of_worship"
}, {
  "id" : "295526114",
  "name" : "Безистен",
  "addr:city" : "skopje",
  "latitude" : "42.0015297",
  "longitude" : "21.4372506",
  "historic" : "yes"
}, {
  "id" : "299665984",
  "name" : "Црква „Св. Атанасиј“",
  "addr:city" : "Radiovce",
  "latitude" : "41.9054735",
  "longitude" : "20.9622874",
  "building" : "church"
}, {
  "id" : "299666061",
  "name" : "Црква „Св. Атанасиј“",
  "latitude" : "41.9056038",
  "longitude" : "20.9620959",
  "religion" : "christian"
},